Stop_id,Stop_Name
10,RUBIANA
100,TOSCANA
1000,CIMABUE
10001,FIOCHETTO
1001,INDUNO
1002,INDUNO
1003,CATTANEO OVEST
1004,CATTANEO OVEST
1005,CATTANEO EST
1006,CATTANEO EST
1007,POMA
1008,POMA
1009,SIRACUSA
101,VALDELLATORRE
1010,SIRACUSA
10100,PARCHEGGIO E STAZIONE STURA
1011,TRAIANO
1012,CAIO MARIO NORD
1013,CAIO MARIO NORD
1014,CAIO MARIO EST
1015,CAIO MARIO EST
1016,CROCE
1017,CROCE
1018,ARTOM
1019,ARTOM
102,GROSSETO
1020,SETTE COMUNI
1021,SETTE COMUNI
1022,PLINIO
1023,BENGASI OVEST
1024,BENGASI SUD
1025,TARTINI
1026,BENGASI SUD
1027,GORIZIA
1028,GORIZIA
1029,SAN MATTEO
103,PIANEZZA
1030,SAN MATTEO
1031,GOBETTI
1032,GOBETTI
1033,VICO
1034,VICO
1035,PESCHIERA
1036,PESCHIERA
1037,TRIESTE OVEST
1038,TRIESTE OVEST
104,PIANEZZA
1040,PONTE CAVALIERI TEMPLARI
1041,CADUTI PER LA LIBERTÀ
1042,CADUTI PER LA LIBERTÀ
1043,CATTANEO
1044,CATTANEO
1045,DELLACHÀ
1046,DELLACHÀ
1047,FAILLA
1049,FAILLA
105,REGINA MARGHERITA
1050,BUOZZI
1051,BUOZZI
1052,NASI
1053,NASI
1054,SETTEMBRINI
1055,PONTE PO
1057,TORINO
106,REGINA MARGHERITA
1063,XXV APRILE
1064,XXV APRILE
1065,PALLAVICINO
1066,ISTITUTO MAXWELL
1067,PRACAVALLO
1068,PRACAVALLO
1069,CESANA
107,APPIO CLAUDIO
1070,CESANA
1071,POLIAMBULATORI
1072,PRINCIPI D'ACAJA
1073,CASTELLO DI MIRAFIORI
1074,CASTELLO DI MIRAFIORI
1075,FARINELLI
1076,PLAVA
1077,BISCARETTI
1078,BISCARETTI
1079,VIGLIANI
10793,SAN MAURO (SAMBUY)
10796,CASTIGLIONE (MOLINO)
10799,CASTIGLIONE (PEDAGGIO)
108,APPIO CLAUDIO
1080,SETTEMBRINI
10802,CASTIGLIONE (FORNACE)
10805,CASTIGLIONE (REZZA)
10808,CASTIGLIONE (SANT' EUFEMIA)
1081,PAVESE
10811,GASSINO (CIRCONVALLAZIONE / DIAZ)
10814,GASSINO (CENTRO)
1082,PRINCIPI D'ACAJA
1083,CAIO MARIO CAP
1084,STUPINIGI
1085,TORINO
1088,DON MINZONI
1089,GORIZIA
109,LESSONA
1090,MARTIRI DELLA LIBERTÀ
1092,RONDÒ BERNARDO
1093,LARGO DELLE ALPI
1094,GORIZIA EST
1095,VIGILI DEL FUOCO
1096,RONDÒ BERNARDO N.16
1097,STUPINIGI
1098,TORINO
1099,RONDÒ BERNARDO
110,LESSONA
1100,SANGONE
1101,SANGONE
1102,CAIO MARIO
1103,CAIO MARIO
1104,BRAMANTE
1105,LEPANTO
1106,OSPEDALE MAURIZIANO
1107,MARONCELLI
1108,MAGELLANO
1109,LEVI
1110,VESPUCCI
1111,PERVINCHE
1112,SOMMEILLER
1113,PERVINCHE NORD
1114,PASTRENGO
1115,PRIMULE NORD
1116,STAZIONE NICHELINO
1117,LAGRANGE
1118,BOLZANO CAP
1119,CAIO MARIO CAP
1120,MARSIGLI CAP
1121,RIETI
1122,BRUNELLESCHI
1123,CHAMBERY
1124,LECCE
1125,SACRARIO DEL MARTINETTO
1126,SACRARIO DEL MARTINETTO
1127,PERVINCHE
1128,GIAMBONE
1130,RE UMBERTO
11303,RIVALTA (FIAT RIVALTA-CANC. 8)
11306,RIVALTA (FIAT RIVALTA-CANC. 5)
1131,OSPEDALE MAURIZIANO
1132,OSPEDALE MAURIZIANO
1133,ROCCABRUNA
1134,ROCCABRUNA
1135,NIZZA
1136,NIZZA
1137,MADAMA CRISTINA
1139,GIURIA
1140,GIURIA
1141,ALTA DI MONGRENO N.16
1142,MORANDI
1144,FABRIZI
1145,OSPEDALE SAN LUIGI CAP
1146,SECRETO
1147,SANGONE
1148,MONDOVI'
1149,ARONA
1150,CASTELLO DEL DROSSO
1151,CASTELLO DEL DROSSO
1152,ANSELMETTI
1153,ANSELMETTI
1154,DROSSO
1155,DROSSO
1157,ROVEDA
1158,NEGARVILLE CAP
1159,NEGARVILLE EST
116,RIVOLI SUD
1160,JONA
1161,FACCIOLI
1162,FACCIOLI
1163,VALLARSA
1164,VALLARSA
1165,UNIONE SOVIETICA
1166,OSPEDALE VALLETTA
1167,TORINO
1168,TORINO
1169,PORTOFINO
117,RIVOLI SUD
1170,PORTOFINO
1171,ISLER
1172,ISLER
1173,VERGA
1174,VERGA
1175,PARCO COLONNETTI
1176,PARCO COLONNETTI
1177,SAPRI
1178,PISACANE
1179,PISACANE
118,BARDONECCHIA
1180,LA MANTA C.23
1181,SOMALIA
1182,MARONCELLI CAP
1183,AUTOSTRADE NORD
1184,CANDIOLO CAP
1185,PAVESE
1186,IVREA
1187,IVREA
1188,ANTIOCA
1189,ANTIOCA
119,BARDONECCHIA
1190,BELGIOIOSO
1191,BELGIOIOSO
1192,CENA
1193,CENA
1194,REISS ROMOLI
1195,OXILIA
1197,PORTA SUSA CAP
1198,REBAUDENGO SUD
1199,REBAUDENGO SUD
12,POZZO STRADA
120,PESCHIERA
1200,VERCELLI N.168
1201,GOTTARDO
1202,RONDISSONE
1203,RONDISSONE
1204,LAURO ROSSI
1205,LAURO ROSSI
1206,VALPRATO
1207,VALPRATO
1208,CRISPI NORD
1209,CRISPI NORD
121,PESCHIERA
1210,CRISPI SUD
1211,CRISPI SUD
1214,VII CIRCOSCRIZIONE
1215,VII CIRCOSCRIZIONE
1216,EMILIA
1217,EMILIA
1218,BOLZANO CAP
1219,LEONARDO DA VINCI NORD
122,MONGINEVRO
1220,PASTRENGO
1222,SAN PAOLO
1223,ISSIGLIO
1224,ISSIGLIO
1225,TOLMINO
1226,TOLMINO
12263,LEINI (V.LE EUROPA/V.VOLPIANO)
1227,MARMOLADA
1228,MARMOLADA
1229,ORBASSANO OVEST
123,MONGINEVRO
1230,ORBASSANO OVEST
1231,EXILLES
1232,CAIO MARIO CAP
1233,STAZIONE
1234,LEINI
1235,GIORDANO BRUNO
1236,CARDUCCI NORD
1237,MOLINETTE
1238,OSPEDALE MOLINETTE
1239,ZARA
124,LANCIA
1240,ZARA
1241,SABAUDIA
1242,SABAUDIA
1243,PONTE DEL GATTO
1244,PONTE DEL GATTO
1245,XXV APRILE N.29
1246,XXV APRILE N.68
1247,XXV APRILE N.65
1248,XXV APRILE N.102
1249,XXV APRILE N.102
125,LANCIA
1250,VAL PATTONERA
12506,LEINI (STR. VOLPIANO 23)
12509,LEINI (BALTEA-BUFFETTI)
1251,VAL PATTONERA
12512,LEINI (MANTOVANI)
12515,VOLPIANO (BAR PINA)
12518,VOLPIANO (GOMMISTA)
1252,XXV APRILE N.167
12521,VOLPIANO (BV. CEBROSA)
12524,VOLPIANO (STAZIONE)
1253,XXV APRILE N.164
1254,CAVORETTO CAP
1255,XXV APRILE N.56
1256,QUERCE SUD
1257,ULIVI N.12
1258,QUERCE
1259,ABETI NORD
126,PARCO RUFFINI
1260,ABETI NORD
1261,VOLGOGRAD NORD
1262,VOLGOGRAD NORD
1263,VOLGOGRAD SUD
1264,VOLGOGRAD SUD
1265,ULIVI
1266,ROBINIE
1267,ABETI
1268,FRASSINI
1269,FRASSINI
127,PARCO RUFFINI
1270,BETULLE
1271,BETULLE
1272,ABBADIA DI STURA
1273,ABBADIA DI STURA
1274,CUORGNÈ
1275,CUORGNÈ
1276,VERCELLI
1277,VERCELLI
1278,GIULIO CESARE
1279,GIULIO CESARE
128,MONFALCONE
1280,SCOTELLARO
1281,SCOTELLARO
1282,OXILIA
1283,OXILIA
1284,PORPORA
1285,GOTTARDO
1286,MARTORELLI
1287,XXV APRILE NORD
1288,XXV APRILE NORD
1289,TORRICELLI
129,MONFALCONE
1290,TORRICELLI
1291,GIULIO CESARE
1292,CASTELLO DI MIRAFIORI
1294,SOLFERINO
1295,RE UMBERTO
1297,PORTA SUSA CAP
1298,XVIII DICEMBRE
13,RIVOLI
130,SEBASTOPOLI
1300,PORTA SUSA
1301,DON BOSCO
1302,DON BOSCO
1303,CIRIÈ
1304,CIRIÈ
13043,SETTIMO (C.SO BRUNELLESCHI)
1305,FORTINO
1306,FORTINO
1307,BALDISSERA
1308,BALDISSERA
1309,CIGNA
131,SEBASTOPOLI
1310,CIGNA
1311,CRISPI OVEST
1312,CRISPI OVEST
1313,REGIO PARCO
1314,ARONA
1315,PIRANDELLO
1316,STURA
1317,D'AZEGLIO
1318,CHIOMO
1319,ROMOLO E REMO
132,FILADELFIA
1320,STURA C.2
1322,PUGLIA C.3
1323,STURA
1324,PUGLIA N.35
1325,STURA C.2
1326,PUGLIA C.4
1327,CENTRO COMMERCIALE
1328,MONDOVÌ
1329,PISTOIA
133,FILADELFIA
1330,TEMPIA
1331,TEMPIA
1332,CAFASSO
1333,CENTRO COMMERCIALE
1334,CENTRO COMMERCIALE
1335,ROMANIA N.546
1336,ROMANIA N.546
1337,NERVI
1338,CASCINETTE C.6 CAP
1339,VILLAGGIO OLIMPIA
134,PITAGORA NORD
1340,VITTORIO VENETO
1341,CREMONA
1342,NERVI
1345,TORINO N.91
1346,TORINO N.91
1347,TORINO N.116
1348,TORINO N.116
1349,BARACCA
135,PITAGORA NORD
1350,BARACCA
1351,CUNEO
1352,MEUCCI
1353,ALESSANDRIA
1354,AVOGADRO
1355,GRIBAUDIA
1356,ROSSELLI
1357,ROMA
1358,MONTELLO
1359,GALILEI
136,PITAGORA SUD
1360,VOLTA
1361,GRAMSCI
1362,PARK STURA CAP
1363,COMO
1364,PARK STURA CAP
1365,MARONCELLI CAP
1366,DI VITTORIO
1367,DI VITTORIO
1368,MONVISO
1369,MONVISO
137,PITAGORA SUD
1370,PARK CAIO MARIO
1371,LEINI
1372,PARK CAIO MARIO
1373,LEVI
1375,FALCHERA CAP
1377,VERCELLI
1378,SCIALOJA CAP
1379,ALA DI STURA
138,DANDOLO
1380,ALA DI STURA
1381,DELLA CELLA
1382,DELLA CELLA
1383,VERONESE
1384,PREVIATI
1386,MASSARI
1387,FEA
1388,FEA
1389,FERMI
139,DANDOLO
1390,FERMI
1391,LULLI
1392,LULLI
1393,PIRANDELLO
1394,GALILEO FERRARIS OVEST
1396,REYCEND
1397,CASCINA NUOVA
1398,VANINETTI
1399,MOGLIA
140,TAZZOLI
1400,FEA
1401,DEL NOBILE N.27
1402,BREGLIO
1403,DEL NOBILE N.55
14039,SAN FRANCESCO
1404,SOSPELLO
1405,CRIMEA
1406,COPPINO
1407,SAN VINCENZO OVEST
1408,SAORGIO
1409,SAN VINCENZO OVEST
141,TAZZOLI
1410,VIBÒ
1411,XVIII DICEMBRE
1412,BOSTON
1413,PINEROLO
1414,BOSTON
1415,VITTORIO EMANUELE II CAP
1416,SAN MAURIZIO CAP
1417,GRAN MADRE
1418,GRAN MADRE
1419,BIAMONTI
142,TAZZOLI C.2
1420,BIAMONTI
1421,VILLA DELLA REGINA
1422,VILLA DELLA REGINA
1423,CAPPUCCINI
1424,CAPPUCCINI
1425,LANZA
1426,LANZA
1427,RIGHINO
1429,LICEO VALSALICE
143,TAZZOLI C.2
1430,LICEO VALSALICE
1431,MOROZZO
1432,DEL NOBILE N.27
1433,DEL NOBILE N.55
1434,DEL NOBILE N.87
1435,MARONCELLI
1436,SAN VINCENZO CAP
1437,TADINI EST
1438,VAL SALICE
14384,CASELLE (STR. TORINO 9)
1439,VAL SALICE N.57
144,D'ARBOREA
1440,TADINI
1441,ADUA
1442,GABETTI CAP
1443,MONCALVO
1444,GOZZANO
1445,PONTE TROMBETTA
1446,PONTE TROMBETTA
1447,SAN MARTINO SUPERIORE
1448,SAN MARTINO SUPERIORE
1449,SAN MARTINO N.66
145,D'ARBOREA
1450,SAN MARTINO N.66
1451,SAN MARTINO N.82
1452,SAN MARTINO N.82
1453,SANT'ANNA
1454,SANT'ANNA
14549,CASELLE (OSPEDALE)
1455,SANT'ANNA N.9
1456,SANT'ANNA N.9
1457,SANT'ANNA N.52
1458,SANT'ANNA N.45
1459,SANT'ANNA N.79
146,AGNELLI C.3
1460,SANT'ANNA N.79
14609,LEINI (STR. SETTIMO 129)
1461,SANT'ANNA N.74
14612,LEINI (FORNACINO)
14613,SETTIMO (V. LEINI/V. LUCCHINI)
1462,SANT'ANNA N.74
1463,SANT'ANNA N.80
1464,SANT'ANNA N.80
1465,LAVAZZA N.47
1466,LAVAZZA N.54
1467,LAVAZZA N.37
1468,LAVAZZA N.36
1469,LAVAZZA
147,AGNELLI C.3
1470,LAVAZZA
1471,PININ PACOT
1472,PININ PACOT
1473,SAN MARTINO N.171
1474,SAN MARTINO N.155
1475,SANTA MARGHERITA
1476,SANTA MARGHERITA
1477,SAN VINCENZO
1478,SAN VINCENZO
1479,MAINERO N.58
148,TAZZOLI
1480,MAINERO N.61
1481,MAINERO N.94
1482,MAINERO N.94
1483,MAINERO N.126
1484,MAINERO N.126
1485,MAINERO CAP
1486,MONCALIERI CAP
1487,NITTI
1488,NITTI
1489,RUBINO
149,CAIO MARIO CAP
1490,RUBINO
1491,SALVEMINI
1492,SALVEMINI
1493,GIARDINO GREEN
1494,GIARDINO GREEN
1495,SALVEMINI OVEST
1496,SALVEMINI OVEST
1497,ALLAMANO
1498,ALLAMANO
1499,SANTA RITA NORD
150,UNIONE SOVIETICA
1500,SANTA RITA NORD
1501,CAPRERA
1502,CAPRERA
1503,TIRRENO
1504,TIRRENO
1505,MARMOLADA SUD
1506,MARMOLADA SUD
1507,MARMOLADA NORD
1508,MARMOLADA NORD
1509,RIVALTA
151,UNIONE SOVIETICA
1510,RIVALTA
1511,ROBILANT SUD
1512,ROBILANT SUD
1513,ROBILANT NORD
1514,MONGINEVRO
1515,MONGINEVRO
1516,TINIVELLA
1517,TINIVELLA
1518,PRAGELATO
1519,CAPRIOLO
152,GUALA
1520,RACCONIGI NORD
1521,FREJUS
1522,VITTORIO EMANUELE II OVEST
1523,VITTORIO EMANUELE II OVEST
1524,ROBILANT SUD
1525,MOGLIA
1526,CASCINA NUOVA
1527,MICCA
1528,MONTE NERO
1529,ARIOSTO
153,GUALA
1530,BERNINI EST
1531,DUCHESSA JOLANDA
1532,CAVALLI
1533,PALMIERI
1534,VOLTA
1535,DROVETTI
1536,MONTELLO
1537,GRIBAUDIA
1538,ALESSANDRIA
1539,CUNEO
154,PIO VII
1540,FARINI CAP
1541,PARK STURA CAP
1542,RODI
1543,DI VITTORIO
15436,VOLPIANO (ULTRAGAS)
1544,DI VITTORIO
1545,ALFIERI
1546,TOLMINO
15460,SETTIMO (V. CEBROSA/STR. DELLA MERLA)
1547,DORA GTT
1548,RENIER
1549,RENIER
155,BENEDETTO CROCE
1550,ROBILANT SUD
1551,PESCHIERA
1552,MONTE NERO
1554,COLLEGNO
1555,PALAGIUSTIZIA
1557,CARLINA NORD RISTOCOLOR
1558,PASSO BUOLE
1559,MICCA
156,PIO VII
1560,EANDI
1561,GIOBERTI
1562,GIOBERTI
15620,POSTIGLIONE
15621,VAJONT
15622,MONCALIERI (BUGATTI)
1563,SAN GABRIELE DA GORIZIA
1564,STATUTO
1565,TONCO
1566,BRICCA
1567,BRICCA
1568,FIGLIE DEI MILITARI
1569,FIGLIE DEI MILITARI
157,SETTE COMUNI
1570,PLAVA C.30
1571,TOSELLI
1572,GASSINO
1573,GASSINO
1574,DEL LAURO
1576,TABACCHI CAP
1577,MOCHINO
1578,MATTATOIO NORD
158,SETTE COMUNI
1580,PALESTRO
1581,PALESTRO
1582,BERTOLLA EST
1583,BERTOLLA EST
1584,BANDELLO
1585,BANDELLO
1586,BERTOLLA
1587,BERTOLLA
1588,TORRE PELLICE
1589,TORRE PELLICE
159,CANELLI
1590,CHIESA
1591,CHIESA
1592,MONTE TORARO
1593,MONTE TORARO
1594,STURA LAZIO
1595,STURA LAZIO
1596,CENTALLO
1597,MAGRA
1598,VITTIME DI BOLOGNA
1599,TORRE PELLICE CAP
160,CANELLI
1600,MAGRA EST
1601,MAGRA
1602,D'ANDRADE
1603,SOFIA NORD
1604,CRAVERO
1605,CRAVERO
1606,ANCINA
1607,ANCINA
1608,TORINO
1609,SESTRIERE CAP
161,NIZZA
1610,PELLICE
1612,CEBROSA NORD
1613,GROSSETO
1614,CORELLI
1615,CORELLI
1616,CILEA
1617,CILEA
1618,OSPEDALE GIOVANNI BOSCO
1619,OSPEDALE GIOVANNI BOSCO
162,BENGASI EST
1620,ANTICA DI COLLEGNO
1621,AMBROSIO
1622,TORINO
1623,GRADISCA
1624,GRADISCA
1627,STAZIONE REBAUDENGO CAP
1628,SESIA
1629,NOVARA
163,CORRADINO CAP
1630,LARGO PALERMO
1631,PAVIA
1633,COMO
1634,ANCONA
1635,ANCONA
1636,REGIO PARCO
1637,REGIO PARCO
1638,REGINA MARGHERITA
1639,REGINA MARGHERITA
164,CASTELDELFINO
1640,FERRARA
1641,PIEMONTE
1642,BERTOLA
1643,PIEMONTE
1644,LOMBARDIA CAP
16442,DELLA LIBERTA'
1645,TOSCANA
1646,DEI MUGHETTI
1647,PIAZZA MERCATO
1648,OMERO OVEST
1649,ALLASON CAP
165,VALLETTE CAP
1651,ROMITA
1652,ROMITA
1653,TEMPIO PAUSANIA
1654,TEMPIO PAUSANIA
1655,GAIDANO
1656,GAIDANO
1657,PITAGORA
1658,PITAGORA
16585,NICHELINO (P.LE ALPI)
1659,DON GRIOLI
166,VALLETTE
1660,DON GRIOLI
1661,SAN MARINO
1662,SAN MARINO
1663,ORBASSANO
1664,ORBASSANO
1665,FILADELFIA
1666,FILADELFIA
1667,SEBASTOPOLI
1668,SEBASTOPOLI
1669,BARLETTA
167,MONTALE
1670,MOMBASIGLIO
1671,ADA NEGRI
1672,ADA NEGRI
1673,TOLMINO
1674,TOLMINO
1675,VITTIME DI BOLOGNA N.10
1677,ANGLESIO CAP
1678,PIAZZA MERCATO
1679,LIONE
168,MONTALE
1680,PIGAFETTA
1682,ARSENALE
1683,BERTOLA CAP
1684,GLICINI
1685,PRIMULE
1687,MUGHETTI
1688,MONTALE
1689,MONTALE
169,PERVINCHE
1690,CIMITERO SETTIMO CAP
1691,CIMITERO SETTIMO CAP
1692,PERVINCHE
1693,PERVINCHE
1694,SANSOVINO
1695,SANSOVINO
1697,MUGHETTI OVEST
1698,PRIMULE OVEST
1699,PRIMULE OVEST
17,BERNINI OVEST
170,PERVINCHE
1700,CINCINNATO
1701,CINCINNATO
1702,TERRANEO
1703,TERRANEO
1704,LOMBARDIA
1705,LOMBARDIA
1708,FOGLIZZO EST
1709,FOGLIZZO
171,SANSOVINO
1710,FORLÌ
1711,FORLÌ
1713,NIEVO
1714,CINCINNATO
1715,CINCINNATO
1716,FOGLIZZO
1717,FOGLIZZO
1718,BORSI
1719,BORSI
172,SANSOVINO
1720,POTENZA OVEST
1721,POTENZA OVEST
1722,POTENZA
1723,POTENZA
1724,SVIZZERA
1725,SVIZZERA
1726,MARTINETTO
1727,MEDAIL
1728,MEDAIL
1729,GALVANI
173,CINCINNATO
1730,GALVANI
1731,SACCARELLI
1732,SACCARELLI
1733,MONCENISIO
1734,MONCENISIO
1736,PARIS CAP
1737,PEPE
1738,DESTEFANIS
1739,DESTEFANIS
174,CINCINNATO
1740,BRAMAFAME
1741,BRAMAFAME
1742,STAMPALIA
1743,STAMPALIA
1744,CALTANISSETTA
1745,SOSTEGNO
1747,CARRERA
1748,STAMPINI
1749,STAMPINI
175,LOMBARDIA
1750,LULLI
1753,GROSSETO
1754,COPPINO EST
1755,COPPINO
1756,LARGO MASSAIA
1757,LARGO MASSAIA
1758,VEROLENGO
1759,VEROLENGO
176,LOMBARDIA
1760,BRIN
1761,BRIN
1762,MORTARA
1763,MORTARA
1764,TREVISO
1765,TREVISO
1766,FRANCIA EST
1767,FRANCIA
1768,PACCHIOTTI EST
1769,MEISINO
177,BORSI
1770,CAFASSO CAP
1771,CASALE
1772,ARIOSTO
1773,PACCHIOTTI
1774,COSTITUZIONE EST
1775,CASALE N.25
1776,CASALE N.33
1777,COSTITUZIONE EST
1778,EUROPA
1779,DIAZ
178,BORSI
1780,MALONE
17801,LEINI (BAR FLORIAN)
1781,CIMITERO SAN MAURO
1782,CIMITERO SAN MAURO
1783,LA VALLE
1784,LA VALLE
1785,DELLE PIETRE
1786,DELLE PIETRE
1787,PESCATORI
1788,PESCATORI
1789,CROCE
179,LARGO TOSCANA
1790,CROCE
1791,CASALE N.431
1792,CASALE N.472
1793,MEISINO
1794,MEISINO
1795,BIAMINO
1796,BIAMINO
1797,PASINI
1798,PASINI
1799,SIGNORELLI
18,BERNINI EST
180,LARGO TOSCANA
1800,SIGNORELLI
1801,MARCO AURELIO
1802,MARCO AURELIO
1803,MONTEU DA PO
1804,MONTEU DA PO
1805,CARRARA
1806,CARRARA
1807,MOTOVELODROMO
18074,VINOVO (REY)
1808,MOTOVELODROMO
1809,CASALBORGONE
181,LARGO BORGARO
1810,CASALBORGONE
1811,BORROMINI
1812,GABETTI
1813,BRICCA
1814,BRICCA
1815,MONFERRATO
1816,CARDINAL MAURIZIO
1817,GRAN MADRE
1818,GRAN MADRE
1819,KENNEDY N.3
182,LARGO BORGARO
1820,MADDALENA N.44
1821,PONTE XI SETTEMBRE
1822,MADDALENA N.44
1823,SAGNA
1827,ALLAMANO
1828,FILADELFIA
1829,CARRERA EST
183,PIERO DELLA FRANCESCA
1830,VITTORIO EMANUELE II CAP
1834,FERRARA N.47
1835,FERRARA N.47
1836,PRIMULE NORD
1837,PRIMULE NORD
1838,MUGHETTI OVEST
1839,MOLISE
184,PIERO DELLA FRANCESCA
1840,MOLISE
1841,CIRENE
1842,CIRENE
1843,PELLERINA
1844,PELLERINA
1845,SERVAIS
1846,SERVAIS
1847,BIANCHI
1848,BIANCHI
1849,CARRERA
185,OSPEDALE AMEDEO DI SAVOIA
1850,CARRERA
1851,PACCHIOTTI
1852,VALGIOIE
1853,MASSAUA SUD
1854,MASSAUA NORD
1855,MASSAUA SUD
1856,CHAMBERY
1857,PRONDA
1858,PRONDA
1859,MONGINEVRO
186,OSPEDALE AMEDEO DI SAVOIA
1860,MONGINEVRO
1862,DON MURIALDO
1863,ANTICA DI GRUGLIASCO
1864,ANTICA DI GRUGLIASCO
1865,VEGLIA
1866,MONFALCONE
1867,FILADELFIA
1868,SEBASTOPOLI
1869,BOSTON
187,TASSONI
1870,BOSTON
1872,SEBASTOPOLI
1873,PUGLIA C.3
1874,FILADELFIA EST
1875,FILADELFIA EST
1876,BOSTON
1877,SAN MARINO
1878,COSENZA
1879,COSENZA
188,TASSONI
1880,DE CANAL
1881,DE CANAL
1882,DINA
1883,DINA
1884,MATTATOIO SUD
1886,POSTE E TELECOMUNICAZIONI
1887,CAIO MARIO CAP
1888,MATTATOIO SUD
1889,PLAVA
189,AVELLINO
1890,QUARELLO N.19
1891,PLAVA EST
1892,BURIASCO OVEST
1893,BURIASCO OVEST
1894,BURIASCO
1895,BURIASCO
1896,PRAMOLLO
1897,PRAMOLLO
1898,UNIONE SOVIETICA
1899,UNIONE SOVIETICA
190,AVELLINO
1900,ISSIGLIO
1901,NEGARVILLE OVEST
1902,ROVEDA
1903,PLAVA C.29
1904,PLAVA C.31
1905,DROSSO N.132
1906,DROSSO N.132
1907,FACCIOLI
1908,FACCIOLI
1909,PLANTERI
191,LIVORNO
1910,PLANTERI
1911,REGINA MARGHERITA
1913,VESPUCCI
1914,SOMMEILLER
1915,STATI UNITI
1916,STATI UNITI
1917,ANTICA DI COLLEGNO OVEST
1918,ISONZO
1919,MILANO
192,LIVORNO
1920,TORINO
1922,TORINO
1924,POSTUMIA
1925,RADICH
1926,RADICH
1927,BARD
1928,BARD
193,INDUSTRIA
1930,MEDICI
1932,CARSO
1933,CARAGLIO
1934,ENTRACQUE
1935,CENTRO COMMERCIALE
1936,CENTRO COMMERCIALE
1937,CENTRO COMMERCIALE NORD
1938,CENTRO COMMERCIALE NORD
1939,BRACCINI
194,INDUSTRIA
1940,SPALATO
1941,MODANE
1942,RIVALTA
1943,MARMOLADA
1944,MARMOLADA
1945,CARLO ALBERTO
1946,CARLO ALBERTO
1947,UMBRIA
1948,MADAMA CRISTINA
1949,D'AZEGLIO
195,RONDÒ FORCA OVEST
1950,MONCALIERI
1951,MONCALIERI
1952,CRIMEA
1953,CRIMEA
1954,ADUA CAP
1955,GROSSETO EST
1956,MUSSO FERRARIS
1958,CENNI
1959,CENNI
196,RONDÒ FORCA OVEST
1960,ANTICA DI GRUGLIASCO
1961,ANTICA DI GRUGLIASCO
1962,CIMITERO GRUGLIASCO
1963,CIMITERO GRUGLIASCO
1964,LEONARDO DA VINCI
1965,LEONARDO DA VINCI
1966,LAMARMORA
1967,LAMARMORA
1968,MORGARI
1969,MORGARI
197,OSPEDALE COTTOLENGO
1970,GARIBALDI
1971,GOITO
1972,PAPA GIOVANNI XXIII
1973,ROMA
1974,ROMA
1975,PUGLIA N.35
1976,FRANZOJ
1977,BERRUTI
1978,CASCINETTE
1979,SOSTEGNO
198,OSPEDALE COTTOLENGO
1980,COSSA
1981,COSSA
1982,SERVAIS CAP
1983,CASALEGGIO
1984,CASALEGGIO
1985,COSSA OVEST
1986,COSSA OVEST
1987,BELLARDI
1988,BELLARDI
1989,BIANCHI
199,PORTA PALAZZO
1990,BIANCHI EST
1991,TELESIO
1992,RE
1993,RE
1994,CAPELLI
1995,MONTE GRAPPA
1996,MONTE GRAPPA
1997,BORGOSESIA
1998,BORGOSESIA
1999,LECCE
20,ALPIGNANO
200,PORTA PALAZZO SUD
2000,LECCE
2001,SVIZZERA
2002,REGIO PARCO EST
2003,MATTEOTTI
2004,GIOLITTI
2005,ROSSA
2006,DONATI
2007,GALILEO FERRARIS
2008,GALILEO FERRARIS
2009,RE UMBERTO
201,PORTA PALAZZO EST
2010,ARSENALE
2011,MORO
2012,CAPELLI
2013,DONATI
2015,BORROMINI
2016,BORROMINI
2017,GIOANETTI
2018,GIOANETTI
2019,SOMMACAMPAGNA
202,PORTA PALAZZO OVEST
2020,SOMMACAMPAGNA
2021,CALVINO NORD
2022,CURRENO
2023,MILAZZO
2024,MILAZZO
2025,FEBO
2026,FEBO
2027,SICILIA
2028,SICILIA
2029,AQUILEIA
203,XI FEBBRAIO
2030,AQUILEIA
2032,FAILLA CAP
2033,MARCO POLO
2034,MARCO POLO
2035,PALESTRO
2036,PALESTRO
2037,DEL CASTELLO
2038,DEL CASTELLO
2039,CIMITERO MONCALIERI
204,XI FEBBRAIO
2040,CIMITERO MONCALIERI
2041,RIGOLINO
2042,RIGOLINO
2043,SCALERO
2044,SCALERO
2045,FIOCCARDO
2046,FIOCCARDO
2047,MONCALIERI N.371
2048,MONCALIERI N.440
2049,SANTA LUCIA
205,GIARDINI REALI
2050,SANTA LUCIA
2051,VILLA ZANETTI
2052,VILLA ZANETTI
2053,MONCALIERI N.315
2054,MONCALIERI N.310
2055,ALBERONI
2056,ALBERONI
2057,MOLINETTE EST
2058,MOLINETTE EST
2059,DANTE
206,GIARDINI REALI
2060,DANTE
2061,STAMPALIA
2062,TORINO ESPOSIZIONI
2064,ORMEA
2065,VELASCO
2066,SAN DOMENICO
2067,MORANDI
2068,MACHIAVELLI N.101
2069,SOLFERINO CAP
207,ROSSINI
2071,RACAGNI
2072,CIMITERO MONUMENTALE
2073,NOVARA NORD
2074,CIMITERO MONUMENTALE OVEST
2075,PINDEMONTE
2076,CIMITERO MONUMENTALE NORD
2077,MACHIAVELLI CAP
2078,INPS
2079,CARCANO
20793,SAN MAURO (SAMBUY)
20796,CASTIGLIONE (MOLINO)
20799,CASTIGLIONE (PEDAGGIO)
208,ROSSINI
2080,POLIZIANO
20802,CASTIGLIONE (FORNACE)
20805,CASTIGLIONE (REZZA)
20808,CASTIGLIONE (SANT' EUFEMIA)
2081,PISA
20811,GASSINO (CIRCONVALLAZIONE / DIAZ)
20814,GASSINO (CENTRO)
2083,VERONA
2084,NOVARA
2085,NOVARA
2088,PARTIGIANI
2089,PISA
209,DUCA DEGLI ABRUZZI
2090,ADRIANO OVEST
2091,ADRIANO OVEST
2092,REVELLO
2093,REVELLO
2094,RACCONIGI NORD
2095,TRAPANI EST
2096,TRAPANI EST
2097,FREJUS CAP
2098,TADINI
2099,VAL SALICE N.64
21,PALMIERI
210,CABRINI
2100,SAN VINCENZO
2101,SAN VINCENZO
2102,VAL SALICE N.152
2103,VAL SALICE N.121
2104,MADDALENA
2105,VAL SALICE N.181
2106,VAL SALICE N.181
2107,MACALLÈ
2108,MACALLÈ
2109,VAL SALICE N.227
211,CAMPUS EINAUDI
2110,VAL SALICE N.227
2111,RABY
2112,RABY
2113,LOT
2114,LOT
2115,SAN VITO-REVIGLIASCO N.400
2116,SAN VITO-REVIGLIASCO N.400
2117,CRF
2118,CRF
2119,MADDALENA
212,CAMPUS EINAUDI
2120,DELLA VIOLA
2121,DELLA VIOLA
2122,SPEZIA
2123,FARINELLI CAP
2124,CASTELLAZZO
2125,VENTIMIGLIA CAP
2126,PLAVA C.31
2127,PLAVA C.29
2128,VENTIMIGLIA CAP
2129,CADORE CAP
213,LARGO BERARDI
2130,ANSELMETTI NORD
21303,RIVALTA (FIAT RIVALTA-CANC. 7)
21306,RIVALTA (FIAT RIVALTA-CANC. 5)
2131,SETTEMBRINI
2132,TRAPANI
2133,VENTIMIGLIA CAP
2134,LANCIA OVEST
2135,LANCIA OVEST
2136,MONGINEVRO
2137,MONGINEVRO
2138,DELLEANI
2139,DELLEANI
214,LARGO BERARDI
2140,PESCHIERA
2141,PESCHIERA
2142,FRANCIA
2143,FRANCIA
2144,MEDICI
2145,MEDICI
2146,SERVAIS
2147,SERVAIS
2148,ZUMAGLIA
2149,ZUMAGLIA
2150,LECCE
2151,LECCE
2152,MONCENISIO
2153,MONCENISIO
2154,GARIBALDI CAP
2156,VOLTURNO CAP
2157,SAURO
2158,ALTESSANO
2159,SECRETO
216,OSPEDALE MARTINI
2160,MANNO
2161,POTENZA
2162,TERNI
2163,TERNI
2164,VILLARI
2165,VILLARI
2166,LARGO BORGARO
2167,LARGO BORGARO
2168,ASSISI
2169,ASSISI
217,OSPEDALE GRADENIGO
2170,UMBRIA
2171,LUINI
2172,SAURO
2173,MANNO
2174,PRINCIPE EUGENIO
2175,BLIGNY
2176,GIULIO
2177,ARBARELLO
2178,GARIBALDI
2179,BERTOLA CAP
218,OSPEDALE GRADENIGO
2180,LANZA
2181,CURRENO N.41
2182,CURRENO N.41
2183,OSPEDALE SAN VITO
2184,OSPEDALE SAN VITO
2185,ANTICA DI SAN VITO OVEST
2186,ANTICA DI SAN VITO OVEST
2187,GATTI N.17
2188,ALBY
2189,RIGHINO
2190,CATONE N.30
2191,CATONE N.29
2192,CATONE N.29
2193,SETTIMIO SEVERO
2194,SETTIMIO SEVERO
2195,SETTIMIO SEVERO N.65
2196,SETTIMIO SEVERO N.65
2197,SETTIMIO SEVERO
2198,SETTIMIO SEVERO
2199,ANTICA DI SAN VITO EST
22,PALMIERI
2200,ANTICA DI SAN VITO EST
2201,PONTE ISABELLA
2202,PONTE ISABELLA
2203,CHIESA DI SAN VITO
2204,CHIESA DI SAN VITO
2205,SAN VITO-REVIGLIASCO N.253
2206,SAN VITO-REVIGLIASCO N.253
2207,VAL PATTONERA
2208,VAL PATTONERA
2209,VAL PATTONERA N.251
2210,VAL PATTONERA N.251
2211,VAL PATTONERA N.224
2212,VAL PATTONERA N.227
2213,CREUSA
2214,CREUSA
2215,VAL PATTONERA N.174
2216,VAL PATTONERA N.174
2217,VAL PATTONERA N.148
2218,VAL PATTONERA N.153
2219,SANTA MARIA DELLA VALLE
222,CASA CIRCONDARIALE CAP
2220,SANTA MARIA DELLA VALLE
2221,VAL PATTONERA N.106
2222,VAL PATTONERA N.109
2223,XXV APRILE
2224,XXV APRILE
2225,ZARA CAP
2226,BONSIGNORE CAP
2227,VANDALINO
2228,PORTONE N.175
2229,PORTONE N.175
223,TOSELLI
2230,BERTANI EST
2231,BERTANI
2232,BERTANI EST
2233,REDENTORE
2234,CIMITERO PARCO
2235,CIMITERO PARCO CAP
2236,MACEDONIA
2237,ORBASSANO
2238,ORBASSANO
2239,TRIPOLI
2240,TRIPOLI
2241,AGNELLI
2242,AGNELLI
2243,GRANERI
2244,UNIONE SOVIETICA
2245,CORSICA
2246,CORSICA
2247,CORSICA EST
2248,PALAZZO DEL LAVORO
2249,PALAZZO DEL LAVORO
225,OSPEDALE GIOVANNI BOSCO CAP
2250,VINOVO
22506,LEINI (STR. VOLPIANO 23)
22509,LEINI (BALTEA-BUFFETTI)
2251,VINOVO
22512,LEINI (MANTOVANI)
22515,VOLPIANO (BAR PINA)
22518,VOLPIANO (GOMMISTA)
2252,PALAVELA
22521,VOLPIANO (BV. CEBROSA)
22524,VOLPIANO (STAZIONE)
2253,PALAVELA
2254,CADUTI SUL LAVORO
2255,CADUTI SUL LAVORO
2256,VADO
2257,VADO
2258,CTO
2259,CTO
226,GIULIO CESARE
2260,TRENTO
2261,PORTONE EST
2262,CIMITERO PARCO
2263,PORTONE EST
2264,VALLETTE CAP
2265,FERRARA
2266,FERRARA
2267,MANNO
2268,LOMBARDIA
2269,LOMBARDIA
2270,CORSICA EST
2271,MONTALENGHE
2272,MONTALENGHE
2273,CHIESA DELLA SALUTE
2274,CHIESA DELLA SALUTE
2275,RANDACCIO
2276,RANDACCIO
2277,CIGNA
2278,VERCELLI
228,RIVAROSSA
2280,GIOLITTI
2281,CAMPUS EINAUDI
2282,BOLOGNA
2283,REGIO PARCO
2284,REGIO PARCO
2285,CIMITERO MONUMENTALE
2286,STABILIMENTO GTT TORTONA
2287,STABILIMENTO GTT TORTONA
2288,BELGIO
2289,BELGIO
2290,TABACCHI CAP
2291,VERONA
2292,IV NOVEMBRE CAP
2293,CAMPUS EINAUDI
2294,STAZIONE VENARIA
2295,STAZIONE VENARIA
2296,ATZEI
2297,ATZEI
2298,DIAZ NORD
2299,DIAZ NORD
230,SANDRE CAP
2300,BUOZZI
2301,BUOZZI
2302,FILZI
2303,TESSARIN NORD
2304,SANDRE
2305,CIGNA
2306,STAZIONE RIGOLA
2307,SOSPELLO
2308,SOSPELLO
2309,BONGHI
231,LAURO ROSSI
2310,BONGHI
2311,LARGO MASSAIA
2312,BALDISSERA
2314,PALERMO
2315,PALERMO
2316,SANDRE
2317,CRISPI EST
2318,CRISPI EST
2319,SEGANTINI
232,PALERMO
2320,CADORE CAP
2321,PIAVE
2322,PIAVE
2323,DI VITTORIO
2324,DI VITTORIO
2325,STAZIONE RIGOLA
2326,CASALE CAP
2327,BRIGHENTI
2328,BRIGHENTI
2329,CARTMAN
233,PALERMO
2330,MONGRENO
2331,MONGRENO N.114
2332,MONGRENO N.134
2333,TRAVERSE
2334,VILLA PIA
2335,CARTMAN N.59
2336,MONGRENO N.218
2337,TETTI BERTOGLIO
2338,MONGRENO N. 329
2339,CARTMAN N.115
234,NOVARA
2340,ALTA DI MONGRENO CAP
2341,CARTMAN N.123
2342,ALTA DI MONGRENO N.47
2343,CARTMAN N.212
2345,ALLEGRI
2346,VENARIA
2347,PARTIGIANI
2348,BOLZANO CAP
2349,ALLEGRI
235,NOVARA
2350,DORA RIPARIA
2351,DORA RIPARIA
2352,SEBUSTO
2353,SEBUSTO
2354,CIMITERO COLLEGNO
2355,CIMITERO COLLEGNO
2356,VENARIA
2357,PORTALUPI CAP
2358,PIOSSASCO
2359,GIOVANNI XXIII
236,EMILIA
2360,GIOVANNI XXIII
2361,DONIZETTI
2362,DONIZETTI
2363,FRANCIA NORD
2364,FRANCIA NORD
2365,VITTORIO VENETO
2366,LA SALLE
2367,PENDINA
2368,VIASSA
2369,VIASSA
237,LAURO ROSSI
2370,CASCINA CANONICA
2371,CASCINA CANONICA
2372,DELLA SERPERA
2373,CALVINO
2374,CASCINA MAIAT
2375,CASCINA MAIAT
2376,TANGENZIALE
2377,TANGENZIALE
2378,REDENTORE
2379,BARICCO
238,CARMAGNOLA
2380,BARICCO
2381,BIVIO PECETTO
2382,BIVIO PECETTO
2383,CIMITERO
2384,RONDÒ FORCA
2385,TROFARELLO
2386,RIESI
2387,CAMPANELLA
2388,TELESIO
2389,OMERO OVEST
239,CARMAGNOLA
2390,NALLINO
2391,SABOTINO OVEST
2392,SABOTINO EST
2393,SOFIA CAP
2394,SOFIA OVEST
2395,ANCINA
2396,CORELLI
2397,CORELLI
2398,MERCADANTE
2399,MERCADANTE
240,BORGO DORA
2400,DERNA EST
2401,DERNA EST
2402,VERCELLI
2403,VERCELLI
2404,POSTE E TELECOMUNICAZIONI
2405,SCIALOJA
2406,SCIALOJA
2407,STAMPINI
2408,STAMPINI
2409,STAMPALIA
241,BORGO DORA
2410,STAMPALIA
2411,DEPANIS
2412,DEPANIS
2413,GROSSETO
2414,ALTESSANO
2415,ALTESSANO
2416,PIRANO
2417,PIRANO
2418,COSTITUZIONE OVEST
2419,TOSCANA
242,CORTE D'APPELLO
2421,TOSCANA
2423,CIMAROSA EST
2424,PACCHIOTTI
2425,PACCHIOTTI
2426,LANZA
2427,BONSIGNORE
2428,TARTINI
2429,PLINIO
243,DUOMO - MUSEI REALI
2430,BENGASI SUD
2431,PUGLIA C.4
2432,ANCINA
2433,GARIBALDI
2434,GOITO
2435,IV NOVEMBRE
2436,POTENZA
24368,BORGARO (STR. AREOPORTO / STR. FRANCESE)
2437,LUINI
24371,BORGARO (LANZO / LOMBARDIA)
2438,CINCINNATO
24383,BORGARO (LANZO / LATTES)
24384,CASELLE (STR. TORINO 9)
2439,SANSOVINO
244,MONTE DI PIETÀ
2440,SANSOVINO
2441,STADIO
2442,STADIO
2443,DRUENTO
2444,DRUENTO
2445,INDUSTRIE
2446,INDUSTRIE
2447,TANGENZIALE SUD
2448,TANGENZIALE SUD
2449,TANGENZIALE NORD
245,GARIBALDI
2450,TANGENZIALE NORD
2451,CIMITERO VENARIA
2452,POLONIA
2453,GIOVANNI XXIII
2454,BURIDANI
24549,CASELLE (OSPEDALE)
2455,TRENTO
24552,CASELLE (STAZIONE / V. AUDELLO)
2456,CIMITERO VENARIA CAP
2457,TRENTO
2458,SAN GIUSEPPE
2459,BOZZOLO
246,BERTOLA
2460,OSPEDALE SANT'ANNA
24609,LEINI (STR. SETTIMO)
2461,DE GASPERI CAP
24612,LEINI (FORNACINO)
24613,SETTIMO (V. LEINI/LUCCHINI)
2463,POLONIA
2468,PAROLETTI
2469,PAROLETTI
247,BERTOLA
2470,CENTALLO
2471,CASCINOTTO
2472,CASCINOTTO
2473,ROMA
2474,ABBADIA DI BERTOLLA
2475,ABBADIA DI BERTOLLA
2476,CEBROSA
2477,CEBROSA
2478,CIMITERO ABBADIA
2479,CIMITERO ABBADIA
248,ARCIVESCOVADO
2480,NEW HOLLAND
2481,NEW HOLLAND
2482,CENTRO COMMERCIALE NORD
2483,CENTRO COMMERCIALE
2484,SAN GIORGIO
2485,SAN GIORGIO
2486,CENTRO SPORTIVO
2487,CENTRO SPORTIVO
2489,IV NOVEMBRE
249,ARCIVESCOVADO
2492,CASCINETTE C.6
2493,VILLAGGIO OLIMPIA
2494,GERBIDI
2495,TEPICE
2496,BENGASI CAP
25,STATUTO
250,SAN QUINTINO
2500,COTTOLENGO
2502,MUGHETTI OVEST
2503,PERVINCHE NORD
2504,PEONIE
2505,PEONIE
2506,CICLAMINI
2507,CICLAMINI
2508,PRIMULE NORD
2509,FILZI
2510,VALLETTE CAP
2511,POLIZIANO
2512,SERVAIS CAP
2513,CARCANO
2514,CADORE
2515,BRIANZA
2516,GALILEO FERRARIS
2517,COSTITUZIONE OVEST
2518,CEBROSA NORD
2519,RIVODORA
252,PORTA NUOVA
2520,MEZZALUNA CAP
2521,PONTE XI SETTEMBRE
2522,DALLE BANDE NERE
2523,OSPEDALE MAURIZIANO
2524,GALILEO FERRARIS
2525,GANDHI
2526,OSPEDALE MAURIZIANO
2527,VESPUCCI
2528,LEPANTO
2529,SOLFERINO CAP
253,PORTA NUOVA
2530,CASERMA MORELLI
2531,SOLFERINO CAP
2532,SEBASTOPOLI
2533,FILADELFIA
2534,FILADELFIA
2536,MONTEVIDEO
2537,SAN MARINO
2538,SAN MARINO
2539,BIANCO
254,SAN SECONDO
2540,GIAMBONE
2541,ROMITA
2542,TAZZOLI
25436,VOLPIANO (ULTRAGAS)
2544,FRATELLI BANDIERA SUD
2545,FRATELLI BANDIERA
2546,GALILEI
2547,GALILEI
2548,TOGLIATTI OVEST
2549,TOGLIATTI EST
255,MASSENA
2550,ORBASSANO
2551,ORBASSANO
2552,CASALE
2553,DALLE BANDE NERE
2555,PRUNOTTO
2556,DEL PASCOLO
2557,SAN MATTEO
2558,PONCHIELLI
2559,PUGLIA
256,LEGNANO
2560,PUGLIA
2561,LARGO GIACHINO NORD
2562,LARGO GIACHINO NORD
2564,SESTRIERE
2565,SANT'ANNA
2566,PIOPPI
2567,BETULLE
2568,BENEDETTO CROCE
2569,PAPA GIOVANNI XXIII
257,LEGNANO
2571,MATTEOTTI
2572,OLEVANO OVEST
2573,OLEVANO N.87
2574,VITTIME DI BOLOGNA
2575,ITALIA CAP
2576,FRANCIA
2577,SETTIMO
2578,GRAMSCI N.26
2579,GARIBALDI
258,PASTRENGO
2580,STROPPIANA
2581,MARTIRI DELLA LIBERTÀ
2582,CHIERI N.228
2583,TORINO
2584,DEL FRANCESE
2585,STROPPIANA
2586,NORVEGIA
2587,PIEMONTE
2588,PIEMONTE
2589,LOMBARDIA
2590,LOMBARDIA
2591,PORTALUPI
2592,DEL FRANCESE OVEST
2594,BELLACOMBA
2595,BELLACOMBA
2596,VERONESE
2597,VERONESE
2599,PAGANINI
260,EINAUDI
2601,PIO VII
2602,PIO VII
2603,STAZIONE LINGOTTO
2604,STAZIONE LINGOTTO
2605,MONTE CORNO
2606,MONTE CORNO
2607,STUPINIGI
2608,PAPA GIOVANNI XXIII
2609,CARDUCCI
261,SOMMEILLER
2610,TORINO
2611,NONE N.121
2612,TORINO N.74
2613,CARENA
2615,OXILIA EST
2616,TOSCANA
2617,LOMBARDIA
2618,LOMBARDIA
2619,CENTRO COMMERCIALE
262,VESPUCCI
2620,SANTA GIULIA
2621,GROSSETO
2622,CIRENE OVEST
2623,CHIERI N.232
2624,PELLERINA
2625,APPIO CLAUDIO
2626,LECCE
2627,PELLERINA
2628,MACHIAVELLI
2629,CIRENE OVEST
263,VESPUCCI
2630,STRADA SUPERGA N.101
2631,MODENA
2632,GENOVA N.216
2633,STAZIONE LINGOTTO
2634,ROCCHETTE
2635,ROCCHETTE
2637,GENOVA N.315
2638,MARTIN LUTHER KING
2639,CROSETTO
264,OSPEDALE MAURIZIANO
2640,MOLINO
2641,BORGATA VILLARETTO
2642,STRADA SUPERGA N.99
2643,V CIRCOSCRIZIONE
2644,V CIRCOSCRIZIONE
2645,GROSSETO
2646,SIRACUSA
2647,SIRACUSA
2648,GUIDO RENI
2649,GUIDO RENI
265,OSPEDALE MAURIZIANO
2650,SOMALIA
2651,GARIBALDI
2652,GOITO
2653,MASSAUA OVEST
2654,MASSAUA OVEST
2656,SAN GREGORIO MAGNO
2657,BAROCCHIO SUD
2658,BAROCCHIO SUD
2659,SALVEMINI
266,DE NICOLA
2660,DON BORIO CAP
2661,SALVEMINI
2662,PANCALIERI
2663,PANCALIERI
2664,SALVEMINI N.51
2665,REVIGLIASCO N.303
2666,ROMITA
2667,VILLARETTO N.175
2668,PORTA SUSA SUD
2669,BURIDANI
267,TIRRENO
2670,LEONARDO DA VINCI
2671,TORINO
2672,COLOMBETTO
2673,COLOMBETTO
2674,MAMELI
2675,MAMELI
2676,SANTA MARIA SUD
2677,SANTA MARIA SUD
2678,SANTA MARIA
2679,SANTA MARIA
268,XX SETTEMBRE
2680,DON BOSCO
2681,PARINI
2682,PETRARCA
2683,MONGRENO N.247
2684,MONGRENO N.335
2685,SASSI CAP
2686,STRADA SUPERGA N.90
2687,VILLA CLARA
2688,PIAN GAMBINO
2689,TETTI ROCCO
269,COSTANTINO IL GRANDE
2690,GEISSER
2691,BASILICA DI SUPERGA CAP
2692,GEISSER NORD
2693,TETTI ROCCO
2694,PIAN GAMBINO
2695,VILLA CLARA
2696,PIANEZZA
2697,STATALE 24
2699,FERMI SUD
27,XVIII DICEMBRE
270,UNIONE SOVIETICA
2700,MACHIAVELLI
2702,STADIO NORD
2703,STADIO NORD
2704,STADIO OVEST
2705,STADIO OVEST
2706,ALESSANDRIA
2707,ALESSANDRIA
2708,TRAVES
2709,TRAVES
271,TURATI
2710,SAVONERA
2711,SAVONERA
2712,TORINO-DRUENTO N.75
2713,TORINO-DRUENTO N.69
2714,SKF SOMECAT
2715,SKF SOMECAT
2716,CASSAGNA
2718,CASSAGNA
2719,DON BOSCO
272,CASERMA MORELLI
2720,SANZIO
2721,SANZIO
2722,PUCCINI
2723,VERDI (PESO)
2724,MANZONI
2726,MORANDI
2727,DE NICOLA
2728,OROPA CAP
2729,TASSONI CAP
273,CASERMA MORELLI
2730,PRIMULE SUD
2731,PRIMULE SUD
2732,AGLIETTA
2733,AGLIETTA
2734,ITALIA
2735,ITALIA
2736,TORINO-PIANEZZA N.53
2737,TORINO-PIANEZZA N.57
2738,PORTALUPI
2739,VALEO
274,SEBASTOPOLI
2740,MARCONI
2741,MARCONI
2742,I MAGGIO
2743,NUOVA TETTI
2744,VILLARETTO N.175
2745,BALDI
2746,DORA RIPARIA
2747,SAN PANCRAZIO
2748,SAN PANCRAZIO
2749,CAFASSO
275,SEBASTOPOLI
2750,CAFASSO
2751,VALDELLATORRE
2752,VALDELLATORRE
2753,CAVOUR NORD
2754,VENARIA N.4
2755,ROSSINI
2756,ROSSINI
2757,TOTI
2758,TOTI
2759,VITTORIO VENETO
276,MONTEVIDEO
2760,VITTORIO VENETO
2761,PHILIPS
2762,PHILIPS
2763,ROBOTTI CAP
2764,ALTESSANO
2765,TESSARIN
2767,DEL FRANCESE N.25
2768,DEL FRANCESE N.21
27680,ORBASSANO (STR. TORINO/V. CALVINO)
2769,DEL FRANCESE N.84
277,MONTEVIDEO
2770,DEL FRANCESE N.93
2771,DEL FRANCESE N.134
2772,DEL FRANCESE N.132
2773,DEL FRANCESE N.156
2774,PEROTTI
2775,PEROTTI
2776,CERVI
2777,CERVI
2778,CHAMBERY
2779,MONCALIERI
278,GIAMBONE
2780,VIII MARZO
2781,DEL FRANCESE N.156
2782,GIACHINO
2783,GIACHINO
2784,MOLINO
2785,LEONARDO DA VINCI NORD
2786,VILLARETTO N.157
2787,LIVORNO
2788,LIVORNO
2789,OSPEDALE DI RIVOLI CAP
279,GIAMBONE
2790,BORGEISA CAP
2791,SERAFINO DIR. BORGARETTO
2792,SERAFINO DIR. ORBASSANO
2793,COLLI
2794,MARTIRI DELLA LIBERTÀ
2796,CLN
2797,SAN LUIGI
2798,CAVALLERO
2799,TENDA
28,XVIII DICEMBRE
280,TAZZOLI EST
2800,TENDA
2801,PARCO SALVEMINI
2802,PARCO SALVEMINI
2803,FRATELLI ROSSELLI
2804,FRATELLI ROSSELLI
2805,SUSA
2806,SUSA
2807,PASUBIO SUD
28074,VINOVO (REY)
2808,PASUBIO SUD
2809,TRIPOLI
281,TAZZOLI
2810,MONTE BIANCO
2811,DERNA
2812,DERNA
2813,SAN BARTOLOMEO
2814,SAN BARTOLOMEO
2815,BALDI
2816,ROSTA
2817,MONTE NERO
2818,MONTE NERO
2819,SALVEMINI
282,TRAIANO
2820,SALVEMINI
2821,FILZI
2822,FILZI
2823,MARTIRI DELLA LIBERTÀ
2824,CLN
2825,SAN LUIGI
2826,CAVALLERO
2827,COTTOLENGO
2828,COTTOLENGO
2829,DALLA CHIESA
283,TRAIANO
2830,DALLA CHIESA
2831,DON AMERANO
2832,DON AMERANO
2833,GALVANI
2834,GALVANI
2835,PALAZZETTO
2836,PALAZZETTO
2837,CASCINA FALCHERA
2838,CASCINA FALCHERA
2839,FALCHERA
284,TRAIANO
2840,FALCHERA
2841,GOZZANO CAP
2842,ROMA
2843,ROMA
2844,MASSA
2845,ANNUNZIATA
2846,ANNUNZIATA
2847,TRIESTE
2848,TRIESTE
2849,CAVOUR
285,DROSSO CAP
2850,CAVOUR
2851,SAN RAFFAELE
2852,FASANO
2853,FIUME
2854,FIUME
2855,TETTI BORRA
2856,TETTI BORRA
2857,GAIDANO
2858,GAIDANO
2859,BENSO
286,CAVOUR
2860,BENSO
2861,VALLE CEPPI
2862,VALLE CEPPI
2863,TARICCO
2864,TARICCO
2865,ADAMELLO
2866,ADAMELLO
2867,LEONCAVALLO
2868,LEONCAVALLO
2869,PIANO BALBIANA
287,CAVOUR
2870,PIANO BALBIANA
2871,TRAFORO
2872,TRAFORO
2873,TETTI MENZIO
2874,TETTI MENZIO
2875,GALLIERA
2876,GALLIERA
2877,BISCARETTI
2878,BISCARETTI
2879,PINO CENTRO
288,DOLCI
2880,PINO CENTRO
2881,OSSERVATORIO
2882,OSSERVATORIO
2883,PANORAMICA
2884,PANORAMICA
2885,EREMO
2886,EREMO
2887,PELLICE
2888,PELLICE
2889,VILLA LUIGINA
289,DOLCI
2890,VILLA LUIGINA
2891,CHIERI N.206
2892,CHIERI N.193
2893,REAGLIE
2894,REAGLIE
2895,POMI
2896,POMI
2897,D'HARCOURT
2898,D'HARCOURT
2899,MARCO AURELIO
29,QUESTURA
290,RISORGIMENTO
2900,MARCO AURELIO
2901,OSPEDALE GRADENIGO
2902,SAN MAURIZIO CAP
2903,GIARDINI SARTORE
2904,CAVOUR
2905,MOLINI
2906,MONTE GRAPPA
2907,LAMARMORA
2908,MONTI
2909,GRAMSCI
291,RISORGIMENTO
2910,PIOSSASCO
2911,GOZZANO
2912,GOZZANO
2913,PASCOLI
2914,PASCOLI
2915,MADDALENE N.39
2916,CIRCONVALLAZIONE
2917,CENTRO RICERCHE FIAT
2918,CENTRO RICERCHE FIAT
2919,FERMI
292,VIII MARZO
2920,FERMI
2921,DE NICOLA
2922,DE NICOLA
2923,ROSSELLI
2924,AMENDOLA
2925,GIOLITTI
2926,DE GASPERI SUD
2927,DALLA CHIESA CAP
2928,BERTANI CAP
2929,CASCINETTE N.424
293,VIII MARZO
2930,CHIOMONTE
2931,TRENTO
2932,GRIVA
2933,MONTE ORTIGARA
2934,REGINA MARGHERITA
2935,VOLVERA
2936,MARONCELLI
2937,CERVI
2938,MARCONI
2939,SAN MASSIMO
294,FORNACI
2940,VIF
2941,EINAUDI
2942,EINAUDI
2943,SAN LUIGI N.61
2944,SAN LUIGI N.61
2945,ACQUEDOTTO
2946,ACQUEDOTTO
2947,OSPEDALE SAN LUIGI
2948,CASERMA BREVI
2949,VILLARETTO N.197
295,FORNACI
2950,GONZOLE
2951,GONZOLE
2952,COLOMBO
2953,COLOMBO
2954,BOTTONE
2955,BOTTONE
2956,AOSTA
2958,RISORGIMENTO EST
2959,RISORGIMENTO EST
296,FERRARA
2960,VILLARETTO N.197
2962,SETTEMBRINI C.20
2963,SETTEMBRINI C.19
2964,SETTEMBRINI C.18
2965,SETTEMBRINI C.18
2966,SETTEMBRINI C.17
2967,SETTEMBRINI C.17
2968,SETTEMBRINI C.16
2969,SETTEMBRINI C.16
297,FERRARA
2970,SETTEMBRINI C.15
2971,SETTEMBRINI C.15
2972,SETTEMBRINI C.8
2973,SETTEMBRINI C.19
2974,CAIO MARIO CAP
2975,DANTE
2976,SETTEMBRINI C.8
2977,BRUERE CAP
2978,MONCALIERI
2979,COLLEGNO
298,SVINCOLO MIRAFIORI
2980,SVINCOLO TANGENZIALE
2981,MONCALIERI
2982,FRANCIA
2983,BORMIDA
2984,IV NOVEMBRE
2985,SVINCOLO TANGENZIALE
2986,MOLINETTI
2987,MOLINETTI
2988,BORGONE
2989,PINEROLO
299,SETTEMBRINI
2990,MONCALIERI
2991,NUOVA TETTI
2992,TETTI NEIROTTI CAP
2994,ITALIA
2995,ITALIA
2996,ALFIERI
2997,ALFIERI
2998,AGNELLI
2999,AGNELLI
3,BRUNELLESCHI
30,QUESTURA
300,SETTEMBRINI
3000,OLIVETTI
3001,OLIVETTI
3002,CENTRO COMMERCIALE
3003,CENTRO COMMERCIALE
3004,TOTI
3005,TOTI
3006,CAMBIANO
3007,CAMBIANO
3008,PIETRE
3009,PIETRE
301,ORBASSANO C.11
3010,MARTINETTO
3011,MARTINETTO
3012,OSPEDALE MARIA VITTORIA
3013,OSPEDALE MARIA VITTORIA
3014,EINAUDI
3015,ROBOTTI CAP
3016,BALDISSERA NORD
3017,COLLI
3019,AIMERITO
302,ORBASSANO C.11
3020,AMATEIS
3021,GENOVA
3022,CERVINO
3023,MINORCHIO
3024,CORTINA
3025,ASTI
3026,MUCRONE
3027,ANTICA DI CHIERI
3028,TORINO
3029,TORINO
303,SICCARDI CAP
3030,STAZIONE
3031,STAZIONE
3032,FOSCOLO EST
3033,FOSCOLO
3034,ROMA
3035,CAVOUR
3036,LOSANO
3037,LOSANO
3038,VOLTA
3039,VOLTA
304,CERNAIA
3040,LEONARDO DA VINCI
3041,LEONARDO DA VINCI
3042,DON GRASSI
3043,DON GRASSI
3044,SAN ROCCO
3045,SAN ROCCO
3046,XXIV MAGGIO
3047,XXIV MAGGIO
3048,I MAGGIO
3049,I MAGGIO
305,CATTANEO SUD
3050,RIGOLFO
3051,RIGOLFO
3052,GENOVA N.212
3053,GENOVA N.295
3054,MARSÈ
3055,MARSÈ
3056,SANDÀ
3057,SANDÀ
3058,BOCCARDO
3059,BOCCARDO
306,CATTANEO SUD
3060,BOSSO
3061,BOSSO
3062,SANGONE
3063,SANGONE
3064,MARONCELLI
3065,MARONCELLI
3066,PALAVELA
3067,PALAVELA
3068,MILLEFONTI
3069,MILLEFONTI
307,CATTANEO
3070,OSPEDALE CTO
3071,OSPEDALE CTO
3072,VITTORIO EMANUELE II
3073,VITTORIO EMANUELE II
3074,DON GNOCCHI - SCUOLE
3076,MANZONI
3077,MANZONI
3078,MARTIRI DELLA LIBERTÀ
3079,MARTIRI DELLA LIBERTÀ
308,CATTANEO
3080,TOLLEGNO
3081,CONFIENZA
3082,DONATELLO
3083,MIRAFIORI
3084,GRAMSCI
3085,GRAMSCI
3086,ITAS CAP
3087,DEL TEMO
3088,DEL TEMO
3089,MIRAFIORI
309,OMERO
3090,CARIGNANO
3091,CARIGNANO
3092,MORO
3093,MORO
3094,BORGO MERCATO
3095,BORGO MERCATO
3096,VILLAFRANCA
3097,VILLAFRANCA
3098,GALVANI
3099,REVIGLIASCO N.196
31,VITTORIO EMANUELE II
310,OMERO
3100,REVIGLIASCO N.253
3101,GORREE
3102,GORREE
3103,TOSCANINI
3104,AMENDOLA
3105,GALVANI
3106,PACINOTTI
3107,PALERMO
3108,CAGLIARI
3109,DEL DONATORE
311,PITAGORA
3110,DEL CRESTO
3111,PASCOLO
3112,STUPINIGI
3113,REVIGLIASCO N.176
3114,REVIGLIASCO N.187
3115,REVIGLIASCO N.150
3116,REVIGLIASCO N.143
3117,ALBERONI
3118,GINESTRA
3119,LORETO
312,PITAGORA
3120,LORETO
3121,CARDUCCI CAP
3122,CAMPO SPORTIVO
3123,PONTICELLI
3124,PONTICELLI
3125,ANTICA DI CHIERI
3127,VILLA REY
3128,BRAMANTE CAP
3129,ORBASSANO CAP
313,BOSTON
3130,OSPEDALE MARIA ADELAIDE
3131,OSPEDALE MARIA ADELAIDE
3132,SEBASTOPOLI
3133,TIGLI
3134,MADDALENE N.20
3135,AGNELLI EST
3136,AGNELLI EST
3137,AGNELLI
3138,MANZONI
3139,MANZONI
314,BOSTON
3140,TRIPOLI
3141,CENTRO COMMERCIALE
3142,CENTRO COMMERCIALE
3143,STAMPALIA CAP
3145,CASTELLO DI RIVOLI CAP
3146,FRANCIA CAP
3147,GALILEO FERRARIS
3148,GALILEO FERRARIS
3149,MORETTA
315,FILADELFIA
3150,UNIONE SOVIETICA
3151,MORETTA
3152,AMATEIS
3153,CERVINO
3154,CORTINA
3155,MUCRONE
3157,GENOVA
3158,MINOCCHIO
316,FILADELFIA
3160,PECETTO
3162,LISA
3163,SESTRIERE
3164,SESTRIERE
3165,DEI CILIEGI
3166,ADIGE
3167,BOVES
3168,VOLTURNO
3169,DEI MILLE
317,SANTA RITA
3170,CREA
3171,GIACOSA
3172,ANTICA DI GRUGLIASCO EST
3173,MARZABOTTO
3174,ALFIERI
3175,CREA
3176,GRANDI
3177,ANTICA DI GRUGLIASCO
3178,CENTRO COMMERCIALE SUD
3179,GRANDI
318,SANTA RITA
3180,CANAVERE N.3
3181,CENTRO COMMERCIALE SUD
3182,LEONCAVALLO
3185,VERCELLI
3186,VERCELLI
3187,BOTTESINI
319,MOMBARCARO
3191,CIMITERO PARCO CAP
3192,PIAVE
3193,NEGHELLI
3194,COTTOLENGO SUD
3195,CAVOUR SUD
3196,MONGINEVRO EST
3197,MONGINEVRO EST
3198,ADRIANO OVEST
3199,ADRIANO OVEST
32,VITTORIO EMANUELE II
320,MOMBARCARO
3201,CAMPO 21
3202,CAMPO 26
3203,CAMPO 38
3204,CAMPO 47
3205,CAMPO DELLA MEMORIA
3206,MUSINÈ CAP
3207,PASCOLI
3208,SUSA
321,CAPRERA
3210,PESCHIERA
3211,FREJUS
3212,ADDA
3213,VERDI
3215,DORA RIPARIA
3216,DERNA
3217,DERNA
3218,GOTTARDO
322,CAPRERA
3220,CAMPO 34
3221,CAMPO 25
323,GESSI
3230,EINAUDI
3231,LARGO TOSCANA
3232,HERMADA
3235,BOCCHERINI
3236,BOCCHERINI
324,GESSI
3244,CAMPUS EINAUDI
3249,KENNEDY
325,ORBASSANO
3250,CIMITERO NICHELINO CAP
3251,PATERI N.17
3252,MAGENTA
3253,ANTONY
3254,BORSELLINO
3255,DRUENTO
3256,PONCHIELLI
3258,PARCO SEMPIONE
3259,PARCO SEMPIONE
326,ORBASSANO
3260,LAURO ROSSI
3261,LAURO ROSSI
3262,VALPRATO
3263,VALPRATO
3265,VIGEVANO
3266,CRUTO
3267,CRUTO
327,CASSINI
3270,LEVI
3271,JOTTI
3273,PONENTE - SANTUARIO
3274,PARUCCO
3275,PORTA SUSA SUD
3276,MARMOLADA
3277,SAN GABRIELE
3278,RIVALTA
3279,ROBILANT NORD
328,CASSINI
3280,BRACCINI
3281,PESCHIERA
3282,PESCHIERA
3283,POLITECNICO
3284,POLITECNICO
3285,DUCA DEGLI ABRUZZI
3286,FERRUCCI
3287,FERRUCCI
3288,DELLA PRONDA
3289,SAN GREGORIO MAGNO
329,CABOTO
3290,VANDALINO OVEST
3291,VANDALINO EST
3292,NAPOLI CAP
3293,SAN GREGORIO MAGNO EST
3294,CASTAGNEVIZZA
3295,CASTAGNEVIZZA
3296,GALIMBERTI
3298,VILLASTELLONE
3299,VILLASTELLONE
33,GALILEO FERRARIS
330,CABOTO
3300,MOLINETTE EST
3301,MARINAI D'ITALIA
3302,CHIABRERA
3303,ADA NEGRI CAP
3304,GENÈ
3305,XI FEBBRAIO
3306,MILLELIRE
3307,COLLI
3308,PALUCCO
3309,BELLAVISTA
331,COLOMBO
3310,ZENIT
3311,BERTONE
3312,SAN GRATO
3313,CHIERI
3314,IV NOVEMBRE
3315,CHIERI
3316,SAN GRATO
3317,BERTONE
3318,ZENIT
3319,BELLAVISTA
332,COLOMBO
3320,PALUCCO
3321,COLLI
3323,GEISSER
3324,MASSAUA CAP
3325,TORINO ESPOSIZIONI
3329,MEZZALUNA CAP
333,EINAUDI
3330,MOCHINO CAP
3331,JUGLARIS N.51
3332,SALUZZO
3333,DUCA DEGLI ABRUZZI
3334,MORANDI
3335,MATTEOTTI
3336,PARUCCO EST
3337,CASTELLO DI MIRAFIORI N.52
3338,MORANDI
3339,GUARINI
334,EINAUDI
3340,GUARINI
3341,POSTE E TELECOMUNICAZIONI
3342,GIOTTO
3343,PAGANINI
3344,PETRARCA
3345,GIOTTO
3346,DE GASPERI
3347,PETRARCA
3348,STATUTO
335,PASTRENGO
3350,DROVETTI
3351,PALMIERI
3352,CAMPO 11
3353,CASTELLO DI MIRAFIORI N.45
3354,SAFFI
3355,CESANA
3356,MANZONI
3357,UNIONE SOVIETICA
3358,CASTELLO DI MIRAFIORI
3359,FARINELLI
336,PASTRENGO
3360,PLAVA
3361,PAVESE
3362,PAVESE
3363,BARBERA
3364,BISCARETTI
3365,VIGLIANI
3366,SETTEMBRINI
3367,DEL CASTELLO N.17
3368,CAIO MARIO
3369,TRIESTE
337,STATI UNITI
3371,BADEN BADEN CAP
3372,DEL CASTELLO N.17
3373,CAIO MARIO
3374,SCIREA
3375,ALTESSANO
3376,SCIREA
3378,AGNELLI C.3
3379,TRAIANO
338,STATI UNITI
3380,AGNELLI CAP
3383,PESCATORE
3384,SOFIA
3385,ANCINA
3386,CORELLI
3387,TARTINI
3388,MASCAGNI
3389,MASCAGNI
339,VELA - G.A.M.
3390,TARTINI
3391,CORELLI
3392,ANCINA
3393,SOFIA
3394,VIRIGLIO
3395,BOTTESINI
3396,CLEMENTI
3397,CLEMENTI
3399,ROVEDA
34,GALILEO FERRARIS
340,VELA - G.A.M.
3400,D'AZEGLIO CAP
3401,MINGHETTI CAP
3403,PAGANINI N.7
3406,OSPEDALE AMEDEO DI SAVOIA
3407,OSPEDALE AMEDEO DI SAVOIA
3408,PIERO DELLA FRANCESCA
3409,PIERO DELLA FRANCESCA
341,XI FEBBRAIO
3410,STAMPALIA CAP
3412,PIANEZZA
3413,REGINA MARGHERITA
3414,MADONNA DI CAMPAGNA
3415,PLAVA C.30
3418,SOLFERINO CAP
342,VITTORIO EMANUELE II
3420,XI FEBBRAIO
3421,GENÈ
3422,NEGRI
3423,OMERO CAP
3424,BOLOGNA
3425,QUARELLO SUD
3426,STAMPALIA CAP
3427,GAIDANO N.8
3428,ALLASON CAP
3429,DE CANAL
343,REVEL
3430,DE CANAL
3431,SANREMO
3432,SANREMO
3433,SIRACUSA
3434,SIRACUSA
3435,OMERO
3436,OMERO
3437,CENTRALE DEL LATTE
3438,CENTRALE DEL LATTE
3439,SIRACUSA
344,REVEL
3440,SIRACUSA
3441,GUIDO RENI
3442,GUIDO RENI
3444,ALFIERI
3445,SABOTINO
3446,GIOVANNI XXIII
3447,SABOTINO
3448,ARTOM CAP
3449,CANDIOLO
345,CERNAIA
3450,MARONCELLI
3452,CABRINI
3453,PALMA DI CESNOLA
3454,ROMA N.8
3455,ROMA
3456,STATI UNITI CAP
3457,SETTIMO
3458,GALILEO FERRARIS
3459,BORGARETTO N.56
3460,BORGARETTO N.18
3461,BORGARETTO N.13
3462,BORGARETTO N.27
3463,STATUTO
3464,ROMA
3465,MILANO N.5
3466,GOITO
3467,GOITO
3468,ORBASSANO C.11
3469,GLADIOLI
347,MOTORIZZAZIONE
3470,PRIMULE N.18
3471,PRIMULE N.18
3472,BATTISTI SUD
3473,BATTISTI SUD
3474,LA SALLE
3475,LA SALLE
3476,SCOFFONE
3477,SCOFFONE
3478,ECHIROLLES
3479,ECHIROLLES
348,MOTORIZZAZIONE
3480,LATINA
3481,LATINA
3482,FRANCIA
3483,FRANCIA
3484,ROSSINI
3485,ROSSINI
3486,CIMAROSA
3487,CIMAROSA
3488,COSTITUZIONE
3489,COSTITUZIONE
349,ARBARELLO CAP
3490,GIACOSA
3491,CAMERANA
3492,PORTA NUOVA
3493,TOGLIATTI
3494,OSPEDALE DI RIVOLI CAP
3495,DON BORIO
3496,FOLIGNO
3497,LARGO TOSCANA
3498,CERTOSA
3499,TIRRENO CAP
35,RE UMBERTO
350,MASSARI CAP
3500,MARCO POLO
3501,RIVOLI NORD
3502,RIVOLI NORD
3504,GENOVA
3505,GORINI
3506,CERVI N.87
3507,CERVI N.87
3508,SESIA
3509,MONTANARO
351,GROSSETO
3510,MONTANARO
3511,SPONTINI
3512,SANTHIÀ
3513,SEMPIONE
3514,CHERUBINI
3515,BOTTESINI
3516,VIRIGLIO
3517,RESPIGHI
3518,COSMA E DAMIANO
3519,TRAIANO
352,GROSSETO
3520,AGNELLI C.3
3521,TAZZOLI
3522,FOLIGNO
3524,MASSARI
3525,VERONESE
3526,IV NOVEMBRE
3527,SCUOLA BERRUTO
3528,SCUOLA BERRUTO
3529,PAVAROLO
353,GIARDINI REALI
3530,PAVAROLO
3531,CORDOVA CAP
3533,CONI ZUGNA
3534,CONI ZUGNA
3535,AOSTA N.133
3536,AOSTA N.133
3537,NOVARA
3538,GERMAGNANO
354,COPPINO
3540,VERDI
3541,PAPA GIOVANNI XXIII CAP
3542,GROSSO CAP
3545,INGHILTERRA CAP
3546,TORRICELLI
3547,TORRICELLI
3548,ROSSELLI
3549,ROSSELLI
355,RONDÒ RIVELLA
3550,BRACCINI
3551,SAN MATTEO
3552,TRENTO CAP
3555,LOMBARDORE CAP
3556,BETULLE 1
3557,PARCO DELLA CONFLUENZA
3558,PARK STURA CAP
3559,ITALIA CAP
356,BREGLIO
3560,STAZIONE STURA
3561,COMO
3562,DUCHESSA JOLANDA
3563,DUCHESSA JOLANDA
3564,CAVALLI
3565,UNIONE EUROPEA
3567,REGINA MARGHERITA
3568,I MAGGIO
3569,SETTEMBRINI
357,GIARDINI REALI
3570,MARCONI CAP
3571,GROSSO
3572,GROSSO
3576,PORTA SUSA SUD
3577,BOLZANO CAP
3578,BAROCCHIO CAP
3579,BAROCCHIO CAP
358,SAORGIO
3581,PORTA SUSA CAP
3582,CARLO FELICE
3583,BAROCCHIO CAP
3585,FOSSATA
3586,CENTRO COMMERCIALE
3587,VITTORIO EMANUELE II CAP
3588,VITTORIO EMANUELE II CAP
3589,PAROLETTI
359,RONDÒ RIVELLA
3590,PAROLETTI
3591,CARCANO
3592,NIEVO EST
3593,CORRADINO CAP
3594,FARINI CAP
3596,MEDICI
3597,MEDICI
3598,MONTE ORTIGARA CAP
36,RE UMBERTO
360,VIBÒ
3604,CADUTI PER LA LIBERTÀ
3605,GOITO CAP
3606,GIUSTI
361,CHIESA DELLA SALUTE
3615,PONTE CAVALIERI TEMPLARI
362,CHIESA DELLA SALUTE
3621,POLO SANITARIO CAP
3623,VENTIMIGLIA CAP
3624,GUARINI
3625,DON SAPINO
3628,BENGASI OVEST
3629,DEI MILLE
363,BALDISSERA
3630,PAPA GIOVANNI XXIII
3631,CHIVASSO
3632,CHIVASSO
3633,BORMIDA
3634,BORMIDA
3635,BORGATA PARADISO
3636,BORGATA PARADISO
3637,SAN GIORGIO
3638,SAN GIORGIO
3639,OSPEDALE SETTIMO
364,BALDISSERA
3640,OSPEDALE SETTIMO
3641,TANARO
3643,DOMODOSSOLA N.1B
3644,OBERDAN
3645,TRENTO
3647,FANTINA
365,CUNEO
3652,GRAMSCI CAP
3653,SPERANZA
3654,VILLAFRANCA
3655,CENTRO COMMERCIALE CAP
3657,PALABURGO
3658,CIRIE'
3659,VERCELLI
366,CUNEO
3660,CASCINOTTO N.230
3661,ROMA
3662,TRIESTE
3664,DONATORE DI SANGUE CAP
3665,MONTE ROSA
3666,IVREA
3667,JUVENTUS CENTER
3669,D'ANTONA
367,FORTINO
3670,GIVOLETTO N. 4
3671,GIAVENO
3672,CASELETTE
3673,ROSTA
3674,GORIZIA CAP
3675,AMENDOLA CAP
3677,PARTIGIANI CAP
3678,PARTIGIANI CAP
368,FORTINO
3683,BRAMANTE CAP
3686,PAGANINI CAP
3687,SOPRAELEVATA
3688,SOPRAELEVATA
3689,OROPA
369,MARIA AUSILIATRICE
3690,MISTERLETTA
3691,PELLICO
3694,POLO SANITARIO
3695,GRAMSCI CAP
3696,PELLICO
3698,OROPA
3699,MISTERLETTA
370,MARIA AUSILIATRICE
3700,BOVETTI
3702,MATTEOTTI
3705,SUSA
3706,PASCOLI
3707,CAAT
371,RONDÒ FORCA
3710,PIAVE
3711,COSMA E DAMIANO EST
372,RONDÒ FORCA
373,STATUTO NORD
374,STATUTO NORD
375,STATI UNITI
376,POLITECNICO
377,STATI UNITI
378,EINAUDI
379,EINAUDI
380,VESPUCCI
381,VESPUCCI
382,FRATELLI CARLE
383,FRATELLI CARLE
384,CASERMA MONTE GRAPPA
385,CASERMA MONTE GRAPPA
386,CAPRERA
387,CAPRERA
388,SEBASTOPOLI
389,SEBASTOPOLI
39,PORTA NUOVA
390,FILADELFIA
391,FILADELFIA
392,SAN MARINO
393,SAN MARINO
394,COSENZA
395,COSENZA
396,TAZZOLI
4,BRUNELLESCHI
40,PORTA NUOVA
400,CHIESA DELLA SALUTE
4001,CAVALLI CAP
4008,CARLO ALBERTO
4012,FOSSANO
4013,FOSSANO
4014,VICUNA CAP
4016,MAGENTA
4018,MALOSNÀ
4019,TORINO
4024,FERRARI
4025,MONTEBELLO
4026,GUASTALLA
4033,MARCONI
4034,MALOSNÀ
4035,CALVINO
4036,PENDINA
4037,VITTORIO VENETO
4038,ROMA
4039,UMBERTO I
404,STABILIMENTO GTT VENARIA
4040,FREJUS
4041,VOLTURNO
4046,GOBETTI
4047,ALFIERI
4048,GIAVENO
4049,GRAMSCI
405,STABILIMENTO GTT VENARIA
4050,FREJUS
4051,GIAVENO
4052,ALFIERI
4053,GOBETTI
4057,PINEROLO
4058,ROMA
4059,FRASCHEI
4060,CARIGNANO
4061,CARIGNANO N.25
4062,NENNI
4063,GIAVENO SUD
4064,PRABERNASCA
4065,PIOSSASCO N.135
4066,MARCONI SUD
4067,GRIVA EST
4068,REGINA MARGHERITA
407,DRUENTO
4070,SAN MASSIMO
4072,PIGAFETTA
4073,PIOSSASCO N.135
4074,PRABERNASCA
4075,GIAVENO
4076,NENNI
4077,CARIGNANO N.24
4078,CARIGNANO
4079,PIAVE
408,CALTANISSETTA
4080,AMENDOLA
4082,FRASCHEI
4083,PINEROLO
4084,CARLO EMANUELE II
41,MARCONI
410,BROSSO
4104,OSPEDALE GRADENIGO CAP
41054,JUVENTUS CENTER
411,VERONESE
4110,VITTORIO EMANUELE II
4111,VITTORIO EMANUELE II
4114,LAGRANGE
4115,GRAMSCI
413,LARGO GROSSETO NORD
4134,VITTORIO EMANUELE II SUD
414,LARGO GROSSETO NORD
415,LARGO GROSSETO SUD
416,LARGO GROSSETO SUD
417,MADONNA DI CAMPAGNA
418,MADONNA DI CAMPAGNA
419,BREGLIO
42,MARCONI
420,BREGLIO
421,LARGO GIACHINO SUD
422,LARGO GIACHINO SUD
423,VITTORIA
425,RE UMBERTO
426,GALILEO FERRARIS
427,GALILEO FERRARIS
428,DE GASPERI
429,XX SETTEMBRE
431,CENTRO COMMERCIALE NORD
432,SICCARDI
433,CERNAIA
434,VITTIME DI BOLOGNA N.7
437,MONCALVO
438,AGNELLI
439,CAMPANELLA
440,CAPELLI
441,CAPELLI
442,MONTE GRAPPA
443,MONTE GRAPPA
444,GHEMME
445,GHEMME
448,LECCE
449,LECCE
45,NIZZA
450,SVIZZERA
451,SVIZZERA
452,RISORGIMENTO
453,RISORGIMENTO
456,FABRIZI
457,FABRIZI
458,OSPEDALE MARIA VITTORIA
459,OSPEDALE MARIA VITTORIA
46,NIZZA
460,COLLEGNO
461,COLLEGNO
462,SCHINA
463,SCHINA
466,STATUTO
467,SICCARDI
468,SICCARDI
469,BERTOLA
47,DANTE
470,BERTOLA
471,CASTELLO
472,CASTELLO
474,ACCADEMIA ALBERTINA
475,ROSSINI
476,SANT'OTTAVIO
477,SANT'OTTAVIO
478,VITTORIO VENETO
479,VITTORIO VENETO
48,DANTE
480,GRAN MADRE CAP
482,SAPRI
483,ARTOM
484,ARTOM
485,CASTELLO DI MIRAFIORI NORD
486,CASTELLO DI MIRAFIORI
487,GARRONE
488,GARRONE
489,VIGLIANI
490,PANETTI
491,DUINO
492,DUINO
493,BOVETTI
494,BOVETTI
495,FLEMING - C.N.R.
496,FLEMING - C.N.R.
497,BARBERA
498,BARBERA
499,PIOBESI
5,EXILLES
50,TEPICE
500,PIOBESI
5000,VIGLIANI CAP
5001,FERMI CAP
5002,DUINO
5005,COSENZA
5007,LAURO ROSSI EST
501,VIGLIANI
5010,CASCINETTE
5011,CASCINETTE
5012,FRANCIA CAP
5016,REGINA MARGHERITA
502,VIGLIANI
5021,REGINA MARGHERITA
5023,ITIS NATTA CAP
503,TRAIANO OVEST
5037,NAZIONI UNITE
5038,NAZIONI UNITE
5039,SAIT
504,TRAIANO OVEST
5040,SAIT
5042,MAZZINI
5043,GIULIA DI BAROLO
5044,VERDI
5046,SPAGNA N.4
5047,CAIO MARIO CAP
5048,CARREFOUR
5049,CARREFOUR
505,TRAIANO
5053,VITTORIO EMANUELE II
5056,LIEBHERR
5057,LIEBHERR
5058,TAZZOLI CAP
506,TRAIANO
5061,FACCIOLI CAP
5062,ELBI
5063,ELBI
5064,SPAGNA N.4
5065,ROSSINI
5066,ROSSINI
5067,MOLE ANTONELLIANA
5068,MOLE ANTONELLIANA
5069,PALAZZO NUOVO
507,PASSO BUOLE
5070,PALAZZO NUOVO
5071,GIOLITTI
5073,AGNELLI
5074,AGNELLI
5075,VENARIA N.39
5076,PARTIGIANI
5078,PARTIGIANI
508,PASSO BUOLE
5082,CORDERO
5087,ALLAMANO CAP
5088,ALLAMANO CAP
5089,PLAVA CAP
509,MALONE
5090,STAZIONE LINGOTTO CAP
5093,BUONARROTI
5094,TAZZOLI
5096,PITAGORA
5097,LEVI
5098,LEVI
51,BISALTA
510,ASUNCION
5101,AMENDOLA CAP
5102,CATTANEO CAP
511,GIAMBONE
5113,BAROCCHIO CAP
5115,DANTE
5116,RIVOLI
5117,OSPEDALE DI RIVOLI
5118,OSPEDALE DI RIVOLI
5119,RIVOLI
512,UNIONE SOVIETICA
5121,BENEVELLO
5127,LUNGO STURA CAP
513,GALIMBERTI
5130,IKEA
5131,IKEA
514,GALIMBERTI
515,MADONNA DELLE ROSE
516,MONTEVIDEO
517,REDUZZI
518,SPAVENTA
519,SPANO
52,BIGLIERI
520,STEFFENONE
521,SEBASTOPOLI
522,BRAMANTE
523,GIORDANO BRUNO
525,VITTORIO EMANUELE II
526,MATTEOTTI
527,MATTEOTTI
53,FINALMARINA
531,BRISSOGNE CAP
532,BIONAZ
533,DE SANCTIS
534,BRUNELLESCHI
535,SACRA SAN MICHELE
536,MONTE CUCCO
537,VITTORIO EMANUELE II
538,SERAO
539,MONTE CUCCO
54,MILLEFONTI
540,TRAPANI
541,TRAPANI
544,GENOLA
545,GENOLA
546,RACCONIGI
547,RACCONIGI
548,SABOTINO OVEST
549,SABOTINO OVEST
550,SABOTINO EST
551,GERMANASCA
552,GERMANASCA
553,FERRUCCI
554,FERRUCCI
555,BIXIO
557,PALAGIUSTIZIA
558,PALAGIUSTIZIA
559,INGHILTERRA
560,INGHILTERRA
561,VINZAGLIO
562,VINZAGLIO
563,VITTORIO VENETO NORD
564,SANTA GIULIA
565,SAN MAURIZIO
566,SAN MAURIZIO
567,SANTA GIULIA
568,REGINA MARGHERITA
569,UNIONE SOVIETICA
57,SOMMARIVA
570,REGINA MARGHERITA
571,RICASOLI
572,RICASOLI
573,TORTONA
574,TORTONA
577,CHIETI
578,CHIETI
579,BRIANZA
58,BEINETTE
580,BRIANZA
581,PALLANZA
582,PALLANZA
583,CADORE
584,CADORE
585,PASINI
586,PASINI
587,MONGRENO
588,MONGRENO
589,SASSI-SUPERGA
590,SASSI-SUPERGA
592,SABOTINO CAP
593,VIGONE
594,ADRIANO OVEST
595,ADRIANO
597,BERNINI
598,TORTONA CAP
60,TESTONA
600,AUDITORIUM
6002,RIMEMBRANZA
6003,PETRARCA
6004,CASTELVECCHIO
6005,SAN SEBASTIANO
6006,COSTALUNGA
6007,SANTA BRIGIDA
6008,SANTA BRIGIDA N.64
6009,MONCALVO
601,MOLE ANTONELLIANA
6010,MONCALVO N.49
6011,MONCALVO CAP
6012,MONCALVO N.41
6013,MONCALVO
6014,SANTA BRIGIDA N.43
6015,SANTA BRIGIDA
6016,COSTALUNGA
6017,SAN SEBASTIANO
6018,CASTELVECCHIO
6019,PETRARCA
602,PALAZZO NUOVO
6020,SANTA CROCE
6021,CUNEO N.12
6022,PASTRENGO N.29
6023,CARIGNANO
6024,SAVONA N.12
6025,SAVONA
6026,POSTE E TELECOMUNICAZIONI
6027,VILLASTELLONE
6029,ADA NEGRI
603,VANCHIGLIA
6030,DEL MORIONDO
6031,PRIMULE CAP
6032,LORETO
6033,ADA NEGRI
6034,TURATI
6035,VILLASTELLONE
6036,POSTE E TELECOMUNICAZIONI
6037,SAVONA
6038,SAVONA N.12
6039,CARIGNANO
604,VITTORIO VENETO
6040,PASTRENGO N.94
6041,CUNEO N.9
6043,PANNUNZIO
6044,GOBETTI
6045,CARPICE
6046,CARPICE N.17
6047,RUSCA
6048,RUSCA N.50
6049,TAGLIAFERRO N.88
605,GIOLITTI
6050,TAGLIAFERRO N.34
6051,TETTI PIATTI N.82
6052,TETTI PIATTI N.72
6053,TETTI PIATTI N.8
6054,GRANDI
6055,GOBETTI
6056,GRANDI
6057,TETTI ROLLE
6058,BARAUDA
6059,CADUTI PER LA LIBERTÀ CAP
606,MAZZINI
6062,CONTRADA BAUDUCCHI
6063,BAUDUCCHI
6064,SANDÀ
6065,DELLA LOGGIA
6066,VAJONT
6067,RIGOLFO
6068,VAJONT
6069,PALERA
607,DELLA ROCCA
6070,SANDÀ
6072,MONCALVO N.10
6073,MONCALVO N.10
6074,SANTA CROCE
6075,ANDEZENO N.19
6076,ANDEZENO N.19
6077,TETTI PIATTI
6078,FAILLA
6079,MONTE NERO
608,ELLERO
6080,CENTRO COMMERCIALE 1
6081,CENTRO COMMERCIALE 2
6082,MONTESSORI - SCUOLE
6083,MONTESSORI - SCUOLE
6086,BADEN BADEN
6087,CENTRO COMMERCIALE 1
609,PELLICO
6090,BOGINO N.12
6091,MONVISO
6092,ROCCHETTE
6093,MONVISO
6094,ROBBIO
6095,RIGOLFO
6096,LOMBARDI
6097,LOMBARDI
6098,MOVICENTRO
61,SOMMARIVA
610,VALENTINO
6100,AIMERITO CAP
6101,MADONNA DELLA SCALA N.117
6102,MADONNA DELLA SCALA N.117
6103,MADONNA DELLA SCALA N.64
6104,MADONNA DELLA SCALA N.81
6105,CHIAVENTONE
6106,MADONNA DELLA SCALA N.31
6107,TIGLI
6108,RESISTENZA
6109,RESISTENZA
611,GIURIA
6110,RESISTENZA N.10
6111,CERVI
6112,FRATELLI CERVI CAP
6113,MADONNA DELLA SCALA
6114,MADONNA DELLA SCALA
6115,COSTAGUTA
6116,COSTAGUTA
6117,CAMBIANO N.34
6118,FONTANETO
6119,ROMA N.26B
612,MADAMA CRISTINA EST
6120,ROMA
6121,DON BOSCO
6122,DON BOSCO
6123,ROMA N.17
6124,PALAZZO DI CITTÀ
6125,PALAZZO DI CITTÀ
6127,SAVONA N.14
6128,MARTIRI DELLA LIBERTÀ CAP
6129,CARIGNANO N.19
613,NIZZA
6130,CARIGNANO N.19
6131,BAUDUCCHI
6132,BAUDUCCHI
6133,BAUDUCCHI
6134,LA ROTTA
6136,VITTONE N.2
6137,MONTI
6138,LOMBROSO
614,TURATI
6141,MARTIRI VIA FANI
6148,I MAGGIO
615,RE UMBERTO
6150,FONTANETO
6153,CUNEO N.51
6154,CUNEO N.44
616,DUCA DEGLI ABRUZZI
6161,ASL
6162,SAVONA N.2
6163,MONCALIERI
6164,CALCATELLI
6165,ARTOM CAP
6167,SAN SILVESTRO
6168,SAN SILVESTRO
6169,DON GNOCCHI - SCUOLE
617,MEDITERRANEO
6170,BOGINO
6173,MARTIRI VIA FANI
6174,MONDO
6175,DELEDDA
6176,DELEDDA
6177,MONTE ADAMELLO
6178,MONTE ADAMELLO
6179,CADUTI PER LA LIBERTÀ
618,FERRUCCI
6180,CADUTI PER LA LIBERTÀ
6181,PESSIONE CAP
6184,ASIAGO N.5
6185,ASIAGO
6186,CONTI ROSSI
6187,CONTI ROSSI
6188,LOMBROSO
6189,MONTI
619,SAN PAOLO
6190,VITTONE
6191,PORTA GIALDO
6192,ROCCHETTE CAP
62,VALENZA
620,SABOTINO CAP
6207,VOLTA
621,SAN PAOLO
622,FERRUCCI
623,MEDITERRANEO
624,DUCA DEGLI ABRUZZI
625,TURATI
626,NIZZA
627,MADAMA CRISTINA
628,GIURIA
629,VALENTINO
63,MILLEFONTI
630,PELLICO
631,VITTORIO EMANUELE II
632,DELLA ROCCA
633,MAZZINI
634,GIOLITTI
635,VITTORIO VENETO EST
636,VANCHIGLIA
637,PALAZZO NUOVO
638,MOLE ANTONELLIANA
64,GARESSIO
640,REGINA MARGHERITA
641,DON CAUSTICO
642,PERGOLESI
643,PERGOLESI
644,BERNINI
646,ADRIANO
648,VINADIO
649,SABOTINO NORD
65,FINALMARINA
650,SCALENGHE
651,MACARIO
652,MACARIO
653,IV NOVEMBRE
654,IV NOVEMBRE
655,TAGLIAMENTO
656,TAGLIAMENTO
657,TEVERE
658,TEVERE
659,NOVALESA
66,BAIARDI
660,NOVALESA
661,FABBRICHETTA
662,CEFALONIA
663,I MAGGIO
664,I MAGGIO
666,MARTIN LUTHER KING
668,DI NANNI
669,MICHIARDI
67,SPEZIA
670,POLITECNICO
671,OLEVANO
672,OLEVANO
673,RIVALTA
674,RIVALTA
675,RIVALTA SUD
676,RIVALTA SUD
677,SAN MARTINO
678,SAN MARTINO
679,LEONARDO DA VINCI
68,MOLINETTE OVEST
680,LEONARDO DA VINCI
681,ALLAMANO N.47
682,BERTONE
683,BERTONE
684,ALLAMANO
685,ALLAMANO
686,SAN PAOLO
687,SAN PAOLO
688,PORTONE OVEST
689,PORTONE OVEST
69,PONCHIELLI CAP
690,GORINI
691,GORINI OVEST
692,GORINI
693,GORINI CAP
694,GERBIDO
695,GERBIDO
696,LICEO CURIE
697,LICEO CURIE
698,BAROCCHIO OVEST
699,BAROCCHIO OVEST
70,BOLOGNA
702,ALFIERI
703,ALFIERI
704,BOLOGNA
705,LESNA
706,LESNA
707,VEGLIA EST
708,VEGLIA EST
709,LARGO BORGARO
71,FUSINATO
710,GUIDO RENI
711,SIRACUSA
712,LARGO BORGARO
713,BAROCCHIO EST
714,BAROCCHIO EST
715,CASALEGNO
716,CASALEGNO
717,CRESCENZIO
718,GUIDO RENI
719,GUIDO RENI
72,CORELLI
720,SIRACUSA
721,SIRACUSA
722,SIRACUSA EST
723,SIRACUSA EST
724,ROVERETO
725,ROVERETO
726,GORIZIA
727,GORIZIA
728,ORBASSANO
729,ORBASSANO
73,CHERUBINI
730,MONCALVO
734,TUNISI
735,TUNISI
736,SEBASTOPOLI SUD
737,STEFFENONE
738,BRAMANTE
739,CARDUCCI
74,OSPEDALE GIOVANNI BOSCO
740,CARDUCCI
741,LARGO TOSCANA
745,SETTEMBRINI C.20
746,COLLEGNO
747,SOFIA CAP
748,SOFIA
749,CROCE ROSSA
75,AMBROSIO
750,CROCE ROSSA
751,CIMAROSA
752,CIMAROSA
753,PONCHIELLI
754,PONCHIELLI
755,PACINI
756,PACINI
757,NOVARA
758,NOVARA
759,PADOVA
76,MONTE ROSA
760,PADOVA
761,VITTORIO EMANUELE II
762,PARMA
763,PARMA
764,DORA SAVONA
765,DORA SAVONA
766,FIOCHETTO
767,FIOCHETTO
768,AUDITORIUM
769,PO
77,MONTE ROSA
770,PO
772,GIOLITTI
773,GIOLITTI
774,CAVOUR
775,CAVOUR
777,MADAMA CRISTINA
778,VITTORIO EMANUELE II
779,SAN PIO V
78,OSPEDALE GIOVANNI BOSCO
780,PELLICO
781,PELLICO
782,MARCONI
783,MARCONI
784,VALPERGA CALUSO
785,VALPERGA CALUSO
786,DONIZETTI
787,DONIZETTI
788,FOSCOLO
789,PETITTI
79,DERNA SUD
790,GRAF
791,GRAF
792,NIZZA
793,TROFARELLO
794,CAIO PLINIO
795,CAIO PLINIO
796,STADIO BASEBALL
797,STADIO BASEBALL
798,SIDOLI
799,SIDOLI
80,DERNA SUD
800,UNIONE SOVIETICA
8002,STAMPINI N.14
801,CASANA
8020,MARTIRI DELLA LIBERTA'
803,TRAIANO
804,CADIBONA
805,CAIO MARIO
806,SETTEMBRINI C.8
807,SETTEMBRINI C.8
81,REBAUDENGO
810,SETTEMBRINI C.16
811,SETTEMBRINI C.16
8121,SASSI-SUPERGA
8122,CASALE CAP
816,SETTEMBRINI C.19
8166,PLAVA OVEST
817,SETTEMBRINI C.19
8174,CERTOSA
8175,CERTOSA
818,SETTEMBRINI C.20
819,SETTEMBRINI C.20
82,REBAUDENGO
820,SETTEMBRINI
821,TROFARELLO
822,SETTEMBRINI CAP
824,TOGLIATTI
825,TOGLIATTI
826,CHE GUEVARA
827,CHE GUEVARA
828,COLOMBO
83,LULLI
830,MARTIRI XXX APRILE
8307,MATTEOTTI
831,COLOMBO
8319,UNIONE SOVIETICA (PROVVISORIA)
832,COLLEGNO
8320,ROMOLO E REMO EST
833,DELLA CROCE
834,TAMPELLINI
835,TAMPELLINI
836,DEL BRUCCO
837,DEL BRUCCO
838,PASTRENGO NORD
839,PASTRENGO NORD
84,PORTA PALAZZO NORD
840,PASTRENGO SUD
841,PASTRENGO SUD
842,CERVI
843,CERVI SUD
844,FERMI
845,CADIBONA
846,MADDALENA N.98 / 104
847,MAGENTA
848,FRANCIA
849,MAGENTA
85,ALA DI STURA
850,ANTONY
851,PARADISO
852,MACEDONIA
853,MACEDONIA
854,RIETI NORD
855,RIETI NORD
856,VAL LAGARINA
857,VANDALINO
858,ERITREA
859,ERITREA
86,ALA DI STURA
860,DE SANCTIS
861,DE SANCTIS
862,VANDALINO
863,FIDIA
864,FIDIA OVEST
865,TRECATE
866,BRUNELLESCHI
867,MARSIGLI
868,MARSIGLI
869,MONTE CUCCO
87,CHIESA DELLA SALUTE
870,MONTE CUCCO
871,TRAPANI
872,TRAPANI
873,CAPRIOLO
874,CAPRIOLO
875,RACCONIGI
876,RACCONIGI
877,SABOTINO OVEST
878,GALILEO FERRARIS
879,GALILEO FERRARIS
88,CHIESA DELLA SALUTE
880,LAMARMORA
881,RE UMBERTO
882,BARACCA
883,FRANCIA
884,FERMI CAP
885,SESTRIERE
886,MONASTIR
887,OSPEDALE SANT'ANNA
889,SEGRE - STAZIONE
89,DE MARCHI
890,BERLINGUER
891,IV NOVEMBRE - STAZIONE
892,VITTORIO VENETO
893,VITTORIO VENETO
894,TOTI
895,DIAZ
896,PARRI
897,ALPIGNANO
898,I MAGGIO
899,I MAGGIO
9,RUBIANA
90,ROCCAVIONE
900,CROCIERA
9000,BORGO CASTELLO
9001,APPARTAMENTI REALI
9002,APPARTAMENTI REALI
9003,FONTANA DELL'OTTO
9004,FONTANA DELL'OTTO
9005,PONTE VERDE
9006,PONTE VERDE
9009,GIARDINI REGGIA
901,CROCIERA (PROVVISORIA)
9010,GIARDINI REGGIA
9013,REGGIA
9015,REGGIA
9016,BORGO ANTICO
9017,BORGO ANTICO
902,CUNEO
903,CUNEO
904,PALLI
905,PALLI
906,BATTISTI
907,BATTISTI
908,BENGASI SUD
909,BENGASI NORD
91,CASTELDELFINO
912,LINGOTTO
914,BENGASI NORD
915,TORINO - STAZIONE
916,CASTELLO DI NICHELINO
917,PASCOLO
918,LA TORRE
919,AMENDOLA
920,MADDALENA N.98 / 104
921,BERLINGUER
922,AMENDOLA CAP
923,STAZIONE NICHELINO
924,TORINO N.282
925,TORINO N.278
926,SCARRONE
927,BUFFA
930,CONSOLATA
931,CALATAFIMI
933,TORINO
934,MILAZZO
935,VOLTURNO
936,VOLTURNO
937,PISACANE
938,PISACANE
939,TEANO
94,STRADELLA
940,TEANO
941,SOTTI
942,SOTTI
943,ORBASSANO
944,ORBASSANO
945,AIRASCA
946,AIRASCA
947,SESTRIERE
948,BARDONECCHIA
949,STUPINIGI
95,MADONNA DI CAMPAGNA
950,VILLAGGIO DEGA CAP
951,STATUTO CAP
952,ALPIGNANO
954,RACCONIGI
955,RACCONIGI
956,RIVOLI
957,BELTRAMO
958,MONTE GRAPPA
959,MONTE GRAPPA
960,POZZO STRADA
961,RIVALTA
962,MASSAUA NORD
963,MASSAUA CAP
964,MARCHE
965,MARCHE
966,PARADISO
967,MAGENTA
968,GRAMSCI NORD
969,GRAMSCI NORD
97,FOLIGNO
970,XXIV MAGGIO
971,XXIV MAGGIO
972,PROVANA
973,PROVANA
974,TOGLIATTI
975,SAN PAOLO
976,SAN PAOLO
977,CIMITERO RIVOLI
978,CIMITERO RIVOLI
979,SPEZIA
98,FOLIGNO
980,FRANCIA SUD
981,RIVALTA EST
982,FRANCIA
983,BARACCA
984,BATTISTI
985,66 MARTIRI
986,66 MARTIRI
987,LA SALLE
988,BATTISTI
989,ANTICA DI RIVOLI
99,TOSCANA
990,LESNA
991,LESNA
992,MOLISE EST
993,MOLISE EST
994,CINCINNATO
995,GAIDANO
996,GAIDANO
997,PASQUE PIEMONTESI
998,PASQUE PIEMONTESI
999,CIMABUE
8210,METRO FERMI
8211,METRO PARADISO
8212,METRO MARCHE
8213,METRO MASSAUA
8214,METRO POZZO STRADA
8215,METRO MONTE GRAPPA
8216,METRO RIVOLI
8217,METRO RACCONIGI
8218,METRO BERNINI
8219,METRO PRINCIPI ACAJA
8220,METRO XVIII DICEMBRE
8221,METRO PORTA SUSA
8222,METRO VINZAGLIO
8223,METRO RE UMBERTO
8224,METRO PORTA NUOVA
8225,METRO MARCONI
8226,METRO NIZZA
8227,METRO DANTE
8228,METRO CARDUCCI
8229,METRO SPEZIA
8230,METRO LINGOTTO
8232,METRO ITALIA61
8233,METRO BENGASI
10075,RIVALTA (FIAT-CANC. 3)
10081,CERONE (BV. CERONE)
10083,STRAMBINO
10092,CARRONE (P.ZA FILIPPO CROSIO)
10095,CROTTE (V. S.CARLO/BV. STRAMBINO)
10098,VISCHE (V. AMIONE/BV. CALUSO)
10119,RIVALTA (FIAT RIVALTA-CANC. 11)
10128,RIVALTA (FIAT RIVALTA-CANC. 9)
10131,RIVALTA (AVIO CANC. 10)
10132,RIVALTA (AVIO CANC. 20)
10241,CHIVASSO (P.I.CHI.)
10365,TORINO (C.SO G.CESARE/LUNGO STURA LAZIO)
10419,SETTIMO (V. MILANO/V. BRESCIA)
10421,SETTIMO (HOTEL GREEN CENTER)
10424,SETTIMO (STAB. REJNA)
10430,SETTIMO (MEZZI PO)
10436,BRANDIZZO (V. TORINO/V. ROSSELLI)
10439,BRANDIZZO (MERCATONE)
10442,BRANDIZZO (CAMPO SPORTIVO)
10445,BRANDIZZO (V. TORINO/V. PASUBIO)
10448,BRANDIZZO (CENTRO)
10451,BRANDIZZO (V. TORINO/V. BOLOGNA)
10454,BRANDIZZO (ALBERGO PINETA)
10460,CHIVASSO (CASELLO 20-RIVOIRA)
10463,CHIVASSO (STR. TORINO 45)
10468,CHIVASSO (POLITEAMA)
10469,CHIVASSO (V. LUNGO P.ZA D'ARMI)
10472,CHIVASSO (V. PO)
10475,CASTAGNETO PO (BV. CHIVASSO)
10478,CASTAGNETO PO (BV. PONTE PO)
10481,CASTAGNETO PO (BARACCONE)
10484,SAN SEBASTIANO (GILARDINI)
10487,SAN SEBASTIANO (ABATE)
10490,SAN SEBASTIANO (ABATE)
10493,SAN SEBASTIANO (CADAUTA)
10496,SAN SEBASTIANO (CASERMA)
10499,SAN SEBASTIANO (CASCINA MOGLIA)
10502,LAURIANO (LUXOTTICA)
10505,LAURIANO (BIVIO)
10508,MONTEU DA PO (BIVIO)
10511,MONTEU DA PO (FONTANA NERA)
10514,CAVAGNOLO (V. CA' D'OSTINO)
10517,CAVAGNOLO (PIANA DI CAVAGNOLO)
10520,CAVAGNOLO (CENTRO)
10523,BRUSASCO
10526,BRUSASCO (SCUOLE)
10535,CHIVASSO (POSTA)
10541,CHIVASSO (V.LE VITTORIO VENETO)
10544,CHIVASSO (MOVICENTRO)
10560,SETTIMO (CIMITERO)
10565,CASERMA (BV. STAZIONE FS)
10568,CASERMA-COLOMBARO (BAR)
10571,CASERMA-COLOMBARO (TORRE)
10574,SAN SEBASTIANO (V. VIGONDA)
10577,SAN SEBASTIANO (ROTTENGA)
10580,CASALBORGONE (BOCCIODROMO)
10583,CASALBORGONE (BV. CERAGLIO)
10586,CASALBORGONE (CENTRO)
10607,MONTIGLIO
10610,PIOVA' MASSAIA (P.ZA SAN MARTINO)
10616,CASALBORGONE (VAL FRASCARINA)
10619,CASALBORGONE (BAGATTA)
10622,CASALBORGONE (BROSE LAZZARINO)
10625,CASALBORGONE (CASCINA ROLETTO)
10628,GONENGO
10631,GONENGO (STR. QUASSO)
10634,GONENGO (PERELLO)
10637,GONENGO (MADONNA NERA)
10640,GONENGO (BESOLO)
10643,GONENGO (BV. MARMORITO)
10646,ARAMENGO (BIVIO)
10649,ARAMENGO (BRAIA)
10652,ARAMENGO (GORREA)
10655,COCCONATO (BIVIO)
10658,ROCCO (TABIELLA)
10661,ROCCO (BV. CERRETO)
10664,GALLARETO
10700,BUTTIGLIERA (LE FRONDE)
10703,AVIGLIANA (V. S.AGOSTINO 4-OSPEDALE)
10730,ASTI (CAPOLINEA)
10733,SARONSELLA
10787,SAN MAURO (SCAMBIO PESO)
10818,GASSINO (SOBRERO)
10820,GASSINO (V. MONTE CERVINO)
10821,GASSINO (V. VAL BAUDANA)
10823,SAN RAFFAELE CIMENA (V. TORINO 45)
10826,PIANA SAN RAFFAELE
10829,SAN RAFFAELE CIMENA (V. CHIVASSO 64)
10832,SAN RAFFAELE CIMENA (V. CHIVASSO 41)
10835,SAN RAFFAELE CIMENA (CA' ROSSA)
10838,SAN RAFFAELE CIMENA
10841,CASTAGNETO PO (SERRAUDA)
10844,CASTAGNETO PO (GALLEANI)
10847,CASTAGNETO PO (BV. CASTAGNETO PO)
10853,SAN RAFFAELE CIMENA (FONTANE)
10856,SAN RAFFAELE CIMENA (TETTI BAUDINO)
10859,SAN RAFFAELE CIMENA (CASCINA CAMINO)
10862,SAN RAFFAELE CIMENA (CASCINA BOASSO)
10865,SAN RAFFAELE CIMENA (CASCINA MANZONI)
10868,SAN RAFFAELE CIMENA ALTO (BIVIO)
10871,RACCONE (CASCINA BARBASSO)
10874,RACCONE
10900,CRESCENTINO (P.ZA MATTEOTTI)
10903,CRESCENTINO (STAZIONE)
10905,CRESCENTINO (P.ZA MARCONI)
10915,VERRUA (BIVIO)
10918,VERRUA (SP 107 CIV. 135)
10920,BRUSASCO (VERRUA SIBERIA)
10925,BRUSASCO (TRUCCO)
10926,VERRUA SAVOIA (FRAZ. MONTICELLI)
10927,VERRUA SAVOIA (FRAZ.VALENTINO - MUNICIPIO)
10928,VERRUA SAVOIA (FRAZ. SAN GIOVANNI)
10929,VERRUA SAVOIA (BV. FRAZ. MONTALDO)
10930,VERRUA SAVOIA (BV. FRAZ. CARBIGNANO)
10931,VERRUA SAVOIA (FRAZ. CASCINE)
10933,VERRUA SAVOIA (SP111 KM 1)
10934,VERRUA SAVOIA (FRAZ. CASE COCETTI)
10935,VERRUA SAVOIA (FRAZ. CASETTO)
10936,VERRUA SAVOIA (FRAZ. CAMPASSO)
10937,VERRUA SAVOIA (FRAZ. CERVOTO)
10938,VERRUA SAVOIA (FRAZ. BAZZOLI)
10939,VERRUA SAVOIA (FRAZ. FRAVAGNANO-CHIESA)
10940,VERRUA SAVOIA (FRAZ. SULPIANO)
10941,VERRUA SAVOIA (FRAZ. RIVALTA-DIR VERRUA)
10942,VERRUA SAVOIA (FRAZ. CAMORANO)
10943,VERRUA SAVOIA (FRAZ. BILA)
10944,VERRUA SAVOIA (FRAZ. RONZO-DIR.BRUSASCO)
10945,VERRUA SAVOIA (FRAZ. TABBIA)
10946,VERRUA SAVOIA (LOC. TRUCCO)
10947,VERRUA SAVOIA (BV. FRAZ. TABBIA)
10948,VERRUA SAVOIA (FRAZ. CALLIANO)
10950,VERRUA SAVOIA (FRAZ. MEZZI)
10979,BUSSOLINO (CARROZZERIA)
10982,BUSSOLINO (TERNENGA)
10985,BUSSOLINO
10988,SCIOLZE (VILLA DELLE ROSE)
10991,SCIOLZE (BIVIO)
10994,SCIOLZE (REG. MULINO)
10997,SCIOLZE (ALLASIO)
11000,SCIOLZE (TETTI PRISSOLO)
11003,SCIOLZE (REG. VALLE)
11006,SCIOLZE (REG. VALLE)
11009,SCIOLZE (REG. FORNACE)
11012,SCIOLZE (V. ROMA)
11015,SCIOLZE (TETTI ROSSETTI)
11018,SCIOLZE (BV. VERNONE)
11021,SCIOLZE (TETTI FRANCHI)
11024,SCIOLZE (TETTI AIE)
11027,SCIOLZE (REG. MALUNGA)
11030,SCIOLZE (REG. BATTAGLINA)
11033,RIVALBA (BIVIO)
11034,RIVALBA (FONTANA)
11036,BORGIONA (BV. MONTERIOLO)
11039,BORGIONA (VILLA CERRO)
11042,BORGIONA (CASCINA FRATE)
11045,BORGIONA (CASCINA BORGIONA)
11048,SAN ROCCO (CASCINA RACCONE)
11051,CINZANO (PILONE)
11054,CINZANO (REG. ROSSATTI)
11057,CINZANO (BV. APRA')
11060,CINZANO
11063,RIVALBA
11072,CROTTE (CHIESA)
11075,CROTTE (V. VISCHE)
11078,VISCHE (CASCINA MONESSA)
11081,VISCHE (CASCINA LUISINA)
11084,VISCHE (CASCINA MOMBELLO)
11087,VISCHE (CASCINA OVA)
11090,VISCHE (V. AMIONE/BV. CANDIA)
11093,VISCHE (P.ZA AMIONE)
11096,VISCHE (CIRCOLO IPPICO)
11099,VISCHE (BV. BARENGO)
11102,MAZZE' (CROCE VALLO-CIMITERO)
11105,MAZZE' (V. CAIRELLI/V. VISCHE)
11108,MAZZE' (V. CAIRELLI/V. BERGANDI)
11111,MAZZE' (P.ZA VITT. VENETO)
11114,TONENGO (DISTR. TAMOIL)
11117,TONENGO (CONSORZIO)
11120,TONENGO (P.ZA UGOLINO)
11123,TONENGO (P.ZA PERTINI)
11126,TONENGO (V. GARIBALDI 228)
11129,TONENGO (V. GARIBALDI 273)
11132,TONENGO (CASCINA SAVONERA)
11135,TONENGO (CASCINA CAROLINA)
11138,TONENGO (CASCINA GILETTA)
11141,BOSCHETTO (EDILIAS)
11144,BOSCHETTO (BV. MANDRIA)
11147,BOSCHETTO (BIVIO)
11150,BOSCHETTO (V. CAMPAGNA 11)
11153,BOSCHETTO (P.ZA S.GIOVANNI)
11156,BOSCHETTO (V. S.FRANCESCO/V. CENE)
11159,BOSCHETTO (V. S.FRANCESCO/V. PROVINC)
11165,BETLEMME (V. BORGHETTO)
11168,CHIVASSO (CAPPUCCINI/SCUOLE)
11171,CHIVASSO (P.ZA DEL POPOLO)
11192,CASALE DI MAZZE' (V. RONDISSONE)
11195,TONENGO (V. CIMITERO)
11222,TORRAZZA PIEMONTE (P.ZA PESO)
11225,RONDISSONE (BV. CIGLIANO)
11228,MAZZE' (V. CALUSO/V. CAIRELLI)
11231,RONDISSONE (P.ZA ROMA)
11234,IVREA (V. JERVIS/NUOVI UFFICI OLIVETTI)
11237,IVREA (STAZIONE FERROVIARIA)
11238,IVREA (V. LEVI/V. PAVESE)
11239,IVREA (V. GINZBURG)
11240,IVREA (V. TORINO/V. BELLINI)
11242,IVREA (MOVICENTRO)
11243,IVREA (V. TORINO/CANTON CARASSO)
11244,IVREA (V. LEVI/V. FENOGLIO)
11246,IVREA (V. TORINO/CANTON GIANOTTI)
11248,IVREA (STAB. DAYCO)
11264,CROTTE (V. S.CARLO 61)
11267,RONDISSONE (P.ZA DANTE)
11330,IVREA (C.SO VERCELLI/S.LORENZO APT)
11331,IVREA (V. CASCINETTE/S.LORENZO APT)
11333,SCARMAGNO (STABILIMENTI)
11336,CALUSO (V. MARTIRI D'ITALIA 45)
11339,CALUSO (COMPUPRINT)
11342,CALUSO (P.ZA MAZZINI)
11345,SAN GERMANO (P.ZA PERTINI)
11348,SAN GERMANO (REG. ROSSETTO)
11351,BORGOFRANCO (V. AOSTA/REG. BREDDA)
11354,BORGOFRANCO (STAZIONE FERROVIARIA)
11357,BORGOFRANCO (V. TORINO/ P.ZA GERMANETTI)
11360,BORGOFRANCO (SS. 26/V. MONTE ROSA)
11363,MONTALTO DORA (V. AOSTA/LOC. PONTE)
11366,MONTALTO DORA (P.LE CHIESA)
11369,MONTALTO DORA (V. IVREA/REG. MULINO)
11372,MONTALTO DORA (V. IVREA/REG. BALME)
11375,MONTALTO DORA (V. IVREA/BALTEA)
11378,IVREA (V. AOSTA/REG. GABELLA)
11381,IVREA (V. AOSTA 83)
11384,IVREA (V. AOSTA/S.ANTONIO)
11387,IVREA (V. AOSTA/PORTA AOSTA)
11393,IVREA (C.SO NIGRA/P.TA TORINO)
11399,IVREA (V. JERVIS/V. MONTENAVALE)
11402,IVREA (V. JERVIS/P.LE AURORA)
11405,BANCHETTE (BV. PAVONE)
11408,BANCHETTE (V. CASTELLAMONTE 25)
11411,BANCHETTE (V. CASTELLAMONTE/V. TORRETTA)
11414,SAMONE (CENTRO)
11417,SAMONE (V. PROVINCIALE-RIBES)
11420,SAMONE (CAPOLINEA)
11423,IVREA (C.SO RE UMBERTO/L.GO DORA I)
11426,IVREA (C.SO RE UMBERTO/L.GO DORA II)
11441,IVREA (V. TORINO/PONTE XXV APRILE)
11444,IVREA (V. TORINO/CANTON VIGNA)
11447,IVREA (V.LE LIBERAZIONE)
11450,BELLAVISTA (V. DON MINZONI)
11453,BELLAVISTA (ITI)
11456,SALERANO (CAPOLINEA)
11459,SALERANO (V. TESTA)
11462,BANCHETTE (V. SAMONE)
11465,BANCHETTE (V. ROMA)
11466,IVREA (V. PINCHIA)
11468,IVREA (V. CASCINETTE/V. RUFFINI)
11471,IVREA (V. CASCINETTE/V. STRUSIGLIA)
11474,IVREA (V. CASCINETTE/BOSCHEREGGIO)
11477,CASCINETTE (CAMPO SPORTIVO)
11480,CASCINETTE (V. DON FARINETTI)
11483,CASCINETTE (MUNICIPIO)
11486,CASCINETTE (P.LE CHIESA)
11489,CASCINETTE (V. ROMA)
11492,CASCINETTE (CASCINE CROTTA)
11495,BUROLO (V. CANDOSSINO)
11498,BUROLO (V. BREDA/V. CANDOSSINO)
11501,BUROLO (LOC. GERMANINA)
11504,BUROLO (COND. EOLO)
11507,BUROLO (CIMITERO)
11510,BUROLO (P.ZA OLIVETTI/CAPOLINEA)
11513,IVREA (C.SO M. D'AZEGLIO/P.ZA FREGUGLIA)
11528,CASCINETTE (RIO GORRERE)
11531,CASCINETTE (LAGO DI CAMPAGNA)
11534,CHIAVERANO (CIMITERO)
11537,CHIAVERANO (LOC. MULINAS)
11540,CHIAVERANO (C.SO CENTRALE)
11547,CHIAVERANO (P.ZA OMBRE/CAPOLINEA)
11550,BANCHETTE (V. CIRCONVALLAZIONE 5)
11562,IVREA (V. TORINO/CANTON BEVOLO)
11565,SAN BERNARDO (V. TORINO/CANTON ARBORE)
11568,IVREA (V. TORINO/CANTON MUSSANO)
11571,SAN BERNARDO (V. TORINO/CANTON GARDA)
11574,IVREA (V. TORINO/CANTON FERRERO)
11577,IVREA (V. TORINO/CANTON MARIDON)
11580,IVREA (C.SO VERCELLI 120)
11583,IVREA (C.SO VERCELLI/V. STRUSIGLIA)
11586,IVREA (V. CASALE 2)
11589,IVREA (V. CASALE/V. BIELLA)
11592,IVREA (V. CASALE/PONTE BREDA)
11595,IVREA (V. CIGLIANO/CASC. BAGNOD)
11598,IVREA (V. CIGLIANO/CASC. ROSSA)
11601,TORRE BALFREDO
11604,TORRE BALFREDO (V. CIGLIANO/CANTON BUSCHETTO)
11607,ALBIANO (BV. TINA)
11610,ALBIANO (V. CIGLIANO/CASC. CAMADIO)
11613,ALBIANO (BORG. PRELLE)
11617,IVREA (Q. S.GIOVANNI-V.LE BIELLA)
11619,BELLAVISTA (P.LE I MAGGIO)
11622,BELLAVISTA (V.LE PAPA GIOVANNI 88)
11625,BELLAVISTA (V.LE PAPA GIOVANNI 148)
11628,BELLAVISTA (V.LE KENNEDY 101)
11631,BELLAVISTA (V.LE KENNEDY 73)
11634,BELLAVISTA (V.LE KENNEDY 17)
11637,BELLAVISTA (V.LE KENNEDY/PAPA GIOVANNI)
11640,IVREA (BV. SAN GIOVANNI)
11643,IVREA (C.SO VERCELLI/V. CREA)
11646,IVREA (C.SO VERCELLI/V. PIEMONTE)
11649,IVREA (C.SO VERCELLI/V. PARATO)
11652,IVREA (C.SO VERCELLI/CASA CIRCONDARIALE)
11655,BUROLO-ZONA INDUSTRIALE (LOC. FORCHINO)
11658,BUROLO-ZONA INDUSTRIALE (CASCINE BRIDOLA)
11661,BUROLO-ZONA INDUSTRIALE (V. IV NOVEMBRE)
11664,BOLLENGO (V. ROMA/V. NIGRA)
11667,BOLLENGO (STR. STATALE 228/V. CASTELLAZZO)
11670,BOLLENGO (CENTRO)
11671,BOLLENGO (STR. PROV. CARAVINO)
11673,BELLAVISTA (REG. FOSSIGALLI)
11679,BOLLENGO (FRAZ. SANT'ANNA)
11682,BOLLENGO (S.S.228/V. CAVOUR)
11688,BOLLENGO (CASCINA GAMBONE)
11690,BOLLENGO (CASCINA CARLINA)
11694,IVREA (Q. S.GIOVANNI-ASILO)
11700,IVREA (Q. S.GIOVANNI-P.ZA BOVES)
11703,PAVONE (PONTE CHIUSELLA)
11706,PAVONE (BORG. QUILICO)
11708,PAVONE (V. CIRCONVALLAZIONE/V. NOSETTA)
11709,PAVONE (CIRCONVALLAZIONE/V. MARCONI)
11713,PAVONE (V.MARCONI)
11715,PAVONE (V. VIGNALE)
11718,PAVONE (V. TRIPOLI/V. TRIESTE)
11721,PAVONE (V. TRIPOLI/V. ROMA)
11724,PAVONE (V. CIRCONVALLAZIONE 42)
11727,PAVONE (V. CIRCONVALLAZIONE/FARMACIA)
11730,PAVONE (V. CIRCONVALLAZIONE/DISTRIB. ERG)
11733,BANCHETTE (V. PAVONE 2/CASERMA CARABINIERI)
11736,IVREA (V. CHABOD)
11739,IVREA (V. LAGO S.MICHELE/DON BURZIO)
11742,IVREA (V. LAGO S.MICHELE/V. FAVERO)
11745,CHIAVERANO (PRAFAGIOLO)
11750,CHIAVERANO (BACCIANA)
11751,CHIAVERANO (LAGO SIRIO)
11757,BORGOFRANCO (V. MANZONI/V. RUFFINI)
11760,BIO' (V. ANDRATE)
11763,BIO'
11766,BIO' (REG. PARATORE)
11769,BIO' (REG. TRUC CAGNIN)
11771,COLLERETTO (BIOPARCO)
11772,NOMAGLIO (REG. CORSANO)
11775,NOMAGLIO
11778,NOMAGLIO (V. ANDRATE 6)
11781,ANDRATE (REG. SERRAMONTE)
11784,ANDRATE (PARCO GIOCHI ROBINSON)
11787,ANDRATE (CAPOLINEA)
11820,PONT (STAZIONE)
11823,PONT (P.ZA CRAVERI)
11826,PONT (P.ZA EUROPA)
11829,PONT (V. FRASSINETTO/V. SANT'ANNA)
11832,PONT (S.MARIA)
11835,FAIALLO (TRUC BERTOT)
11838,FAIALLO (PIASERETTO)
11841,FAIALLO (FRAZ.CAMPETTI)
11843,FAIALLO (BORG. PANIER)
11844,FAIALLO (FRAZ.MARTINETTO)
11847,FAIALLO
11850,FAIALLO (FRAZ.MAIELLA)
11853,FAIALLO (FRAZ.BUSTA SEL)
11856,FRASSINETTO (FRAZ.CASA NUOVA)
11859,FRASSINETTO (FRAZ.CANTELLETTO)
11862,FRASSINETTO (FONTANA ROSSA)
11865,FRASSINETTO (PANISSERE)
11868,FRASSINETTO (CIMITERO)
11871,FRASSINETTO
11874,FRASSINETTO (BV. CHIAPPINETTO)
11877,FRASSINETTO (FRAZ. TETTI)
11880,FRASSINETTO (FRAZ. CERESER)
11883,FRASSINETTO (FRAZ. BALMA)
11886,FRASSINETTO (FRAZ. GALLI)
11889,BERCHIOTTO
11892,PONT (BORG. VILLANOVA)
11895,PONT (BAUSANO INF.)
11898,PONT (BORG. BAUSANO)
11901,PONT (CONFIGLIE')
11904,PONT (STROBA)
11907,PONT (FRAILINO)
11910,INGRIA
11913,INGRIA (VIRETTO)
11916,INGRIA (VILLANOVA)
11919,RONCO (FRAZ. LILLA)
11920,RONCO (BV. BOGGIERA)
11922,RONCO (FRAZ. FUCINA)
11925,RONCO (BV. FORZO)
11926,RONCO (CIMITERO)
11928,RONCO
11931,RONCO (RICOVERO)
11934,RONCO (CASERMA)
11937,RONCO (BV. SCANDOSIO)
11940,VALPRATO (PT)
11943,VALPRATO SOANA
11968,PONT (LOC. SARRO)
11974,PONT (BORG. LANTIGLIERA-BOETTI)
11977,SPARONE (BORG. TORRE)
11980,SPARONE (MUNICIPIO)
11983,SPARONE (P.ZA DEL PONTE)
12043,CHIAVERANO (REG. MOLINETTO)
12046,BIENCA (V. PERONETTO/REG. MONTRESCO)
12049,BIENCA (CHIESA)
12052,BIENCA (CAPOLINEA)
12061,CHIAVERANO (TORBIERA)
12067,CASCINE ROMANO
12070,ROMANO (CAMPO SPORTIVO)
12073,ROMANO
12076,ROMANO (BV. CIMITERO)
12093,PEROSA (BV. PRANZALITO)
12096,PEROSA (V. PAPA GIOV./V. ISONZO)
12099,PEROSA (V. SCARMAGNO/V. PERRONE)
12105,SCARMAGNO (STR. PROVINCIALE 56)
12108,SCARMAGNO (CAMPO SPORTIVO)
12117,CHIESANUOVA
12120,CHIESANUOVA (CIMITERO)
12123,CHIESANUOVA (FRAZ. CROSIO)
12125,CHIESANUOVA (FRAZ. CROSIO INFERIORE)
12126,CHIESANUOVA (FRAZ. VILLANUOVA)
12129,CHIESANUOVA (BV. NAVA)
12132,PRIACCO (BV. CHIESANUOVA)
12138,PRIACCO (P.ZA XXV APRILE)
12140,PRIACCO (CIMITERO)
12141,PRIACCO (REG. GAUDANO)
12144,CUORGNE' (PEDAGGIO)
12147,CUORGNE' (CENTRO)
12150,CUORGNE' (STAZIONE)
12162,SALTO (V. ROSSELLI)
12165,SALTO (V. BUOZZI/LOC. BIANCETTA)
12168,CASTELNUOVO NIGRA (P.ZA MARTIRI)
12171,CASTELNUOVO NIGRA (REG. PONTIGLIA)
12173,CASTELNUOVO NIGRA (REG. CANTELLO)
12174,CASTELNUOVO NIGRA (BV. VILLA)
12176,RUEGLIO (PONTE)
12177,CINTANO (LOC. BRICHETTO)
12180,CINTANO (P.ZA DON SPAGNA)
12183,CINTANO (V. CHIUMINATTO)
12186,CINTANO (LOC. CUDIBIA)
12187,CINTANO (LOC. BURIA)
12188,CINTANO (BV. SANTUARIO DI PIOVA)
12189,COLLERETTO CASTELNUOVO
12192,COLLERETTO CASTELNUOVO (TORRE)
12195,BORGIALLO (CIMITERO)
12198,BORGIALLO (V. COLLERETTO 37)
12201,BORGIALLO (P.ZA 16.3.1948)
12204,BORGIALLO (LOC. SAN CARLO)
12207,BORGIALLO (LOC BELVEDERE)
12210,CHIESANUOVA (V. CUORGNÈ 2)
12266,LEINI (ROVEGLIA)
12269,LEINI (CARTIERA)
12272,LEINI (BV. TEDESCHI)
12275,LOMBARDORE (MOBILIFICIO)
12278,LOMBARDORE (CASCINA DEL PESO)
12281,LOMBARDORE (POLIGONO/CAMPO)
12284,LOMBARDORE (BIVIO)
12293,BOSCONERO (SS460/BV. BOSCONERO)
12296,FELETTO (MASTRI)
12302,FELETTO (EX GUGLIELMETTI)
12305,FELETTO (P.ZA MARTIRI FELETTESI)
12308,FELETTO (V. FONTANA 60)
12314,RIVAROLO (GARAGE SADA)
12317,RIVAROLO (BV. EATON LIVIA)
12323,RIVAROLO (SALP)
12329,RIVAROLO (STAZIONE)
12332,RIVAROLO (CENTRO)
12338,RIVAROLO (ETI)
12341,RIVAROLO (C.SO  INDIPENDENZA/V. F.CERRANO)
12344,RIVAROLO (VESIGNANO)
12353,SALASSA
12356,SALASSA (OFFICINE DEGRA)
12359,VALPERGA (REG. VALLERO)
12360,VALPERGA (IST. CIAC)
12362,VALPERGA (STAZIONE)
12368,VALPERGA (CHIESA)
12371,VALPERGA (V. CUORGNE'/V. MASSOLA)
12372,VALPERGA (V. CUORGNE'/STR. PUET)
12374,CUORGNE' (V. BRIG. PARTIGIANE 41)
12377,CUORGNE' (V. BRIG. PARTIGIANE 16)
12383,SALTO (V. VALLI DELL'ORCO/V. RUFFATTO)
12384,PONT (V. ROMA 56)
12389,PONT (V. ROMA/V. BERTOLDI)
12392,SALTO (P.ZA I MAGGIO)
12398,SPINETO (PIOVA-MULINO)
12401,SPINETO (V. CUORGNE' 133)
12404,SPINETO (CENTRO)
12407,SPINETO (RUFFINATTI)
12413,CASTELLAMONTE (VI.MU)
12415,CASTELLAMONTE (V. CANEVA)
12416,CASTELLAMONTE (EX STAZIONE)
12419,CASTELLAMONTE (S.GRATO/BOTTA)
12425,CASTELLAMONTE (BV. PREPARETTO)
12431,CASTELLAMONTE (CASCINA LA SPINA)
12437,BALDISSERO (BETTOLINO)
12440,BALDISSERO (BV. TORRE)
12443,BALDISSERO (FRAZ. PRAMONICO)
12446,STRAMBINELLO (BV. P.TE PETRI-CASA BIAVA)
12449,STRAMBINELLO (BV. P.TE PETRI)
12450,STRAMBINELLO (BARACCONE)
12452,QUAGLIUZZO (S.P. 14-N. 222)
12455,QUAGLIUZZO (MUNICIPIO)
12458,PARELLA (P.ZA BARATTIA)
12461,COLLERETTO GIACOSA
12463,"COLLERETTO GIACOSA (SP63 KM 3,100)"
12464,LORANZE' CAMPANA (V. PASQUERE)
12467,SAMONE (PONTE RIBES)
12473,RIVAROLO (CASE FANFANI)
12476,FAVRIA (P.L.-ENEL)
12479,FAVRIA (COLLEGIO BERTANO)
12482,FAVRIA (V. S.PIETRO/P.ZA MARTIRI LIBERTA')
12483,FAVRIA (SCUOLE MEDIE)
12485,FAVRIA (STAZIONE)
12488,OGLIANICO (P.ZA STATUTO)
12491,OGLIANICO (CAMPO SPORTIVO)
12497,LOMBARDORE (CASCINA BOSSOLE)
12503,SAN BENIGNO (PORTAEREI DEL MOBILE)
12527,VOLPIANO (S.MICHELE)
12530,SAN BENIGNO (STAZIONE)
12533,SAN BENIGNO (BV. CIRCONVALLAZIONE 31)
12536,SAN BENIGNO (V. CHIVASSO)
12539,SAN BENIGNO (ALPINA)
12541,SAN BENIGNO (STAB. ICSA)
12542,SAN BENIGNO (V. RIVAROLO/V. CAROBIA)
12545,BOSCONERO (BV. CIRCONVALLAZIONE)
12548,BOSCONERO (V. NIGRA/V. ALIGHIERI)
12551,BOSCONERO
12552,ALBA (STAZIONE FERROVIARIA)
12554,ALBA (DEPOSITO)
12560,ALBA (RONDÒ)
12563,ALBA (DANIELS)
12566,ALBA (MUSSOTTO-STAZIONE)
12569,MUSSOTTO (BV. GUARENE)
12571,MUSSOTTO (P.ZA DELLA CHIESA)
12572,ALBA (MUSSOTTO-PONTE NERO)
12575,BORBORE (SIONERI)
12578,BORBORE (MOMBELLI)
12581,BORBORE (VALMAGGIORE)
12584,BORBORE (BV. SOCCO)
12587,BORBORE (V. TORINO)
12590,BORBORE (CARTIERA)
12593,CANALE (V. RUBIAGNO)
12596,CANALE (DISTRIBUTORE ESSO)
12599,CANALE (P.ZA MARTIRI)
12602,CANALE (P.ZA MARCONI)
12605,CANALE (SAN ROCCO)
12608,MONTA' (PONTE MURINALDO)
12611,MONTA' (P.ZA VITTORIO VENETO)
12614,MONTA' (S.LUCIA)
12617,MONTA' (BV. S.VITO)
12620,MONTA' (CASTELLERO)
12623,BUSANO (V. VALPERGA 23)
12626,PRALORMO (LAGO SPINA)
12629,PRALORMO (CAMICERIA)
12632,PRALORMO (P.ZA RISORGIMENTO)
12656,CANALE (P.ZA MARTIRI-ENOTECA)
12659,SAN GIORGIO (SS457-CASCINOTTI)
12662,MONTEU ROERO (BV. BRICCO-FERRERI)
12663,MONTEU ROERO (Z.I. RIVETTO)
12665,MONTEU ROERO (BV. RIVETTI)
12668,MONTEU ROERO (CANTON SANDRI)
12671,MONTEU ROERO (TRE RIVI)
12677,MONTEU ROERO (BV. CONELIANO)
12680,MONTEU ROERO (BV. S.STEFANO)
12683,MONTEU ROERO (V. UMBERTO I/V. FONDO VILLA)
12686,MONTEU ROERO (P.ZA MUNICIPIO)
12689,CARAMAGNA (CAMPO SPORTIVO)
12692,MONTEU ROERO (BV. MONTALDO)
12695,MONTEU ROERO (BV. SAN GRATO)
12698,MONTEU ROERO (BV. SAN LUIGI)
12701,MONTEU ROERO (BV. SAN BERNARDO)
12704,MONTEU ROERO (BV. BALDISSERO)
12707,MADONNA DEL PILONE
12708,SOMMARIVA BOSCO (V. CANALE 59)
12709,SOMMARIVA BOSCO (V. SALUZZO 33)
12710,SOMMARIVA BOSCO (V. TORINO)
12713,CARAMAGNA (P.ZA UMBERTO I)
12716,CARAMAGNA (V. SAN SEBASTIANO/V. MAZZINI)
12719,CARAMAGNA (STR. CARMAGNOLA)
12725,ALBA (C.SO EUROPA/V. STOPPA)
12728,ALBA (C.SO EUROPA-LICEO SCIENTIFICO)
12731,ALBA (C.SO EUROPA/V. ALDO MORO)
12734,ALBA (C.SO EUROPA/V. SAN PIO V)
12737,ALBA (C.SO EUROPA/V. SCAGLIONE)
12740,ALBA (C.SO EUROPA/V. VIBERTI)
12743,ALBA (PRESTEL)
12746,GALLO (CANTINA RODDI)
12749,GALLO (SEBASTE)
12750,GALLO (BV. BORZONE)
12752,GALLO (FRAZ. CIOCCHINI)
12755,GALLO (V. GARIBALDI)
12758,GALLO (STAB. MONDO RUBERT)
12761,GALLO (CARROZZERIA MASCARELLO)
12764,SERRALUNGA (BIVIO)
12767,CASTIGLIONE (BIVIO)
12770,BATASIOLO (BV. PLUCOTTI-MANZONI)
12773,GARBELLETTO (BV. ANNUNZIATA)
12774,LA MORRA (BORG. GANCIA)
12776,BAROLO (PONTE ROCCA)
12779,BAROLO (BUSSIA-SCIULIN)
12782,BAROLO (V. VALLE VIGNANE)
12788,BAROLO (P.ZA CABUTTO)
12791,BAROLO (CIRCONVALLAZIONE)
12794,NOVELLO (BV. CIOCCHINI-MASCARELLI)
12797,NOVELLO (P.ZA MONVISO)
12800,NOVELLO (BV. TARDITI-CORINI)
12803,NOVELLO (CASCINA MASCARELLO)
12806,NARZOLE (BIVIO)
12809,MONCHIERO (FRAZ. FORNACI)
12812,MONCHIERO (P.ZA ABBONA)
12815,OZEGNA (BV. SEGHERIA)
12818,OZEGNA
12821,CASTELLAMONTE (SANT'ANTONIO)
12824,CASTELLAMONTE (DISTR. AGIP)
12827,CASTELLAMONTE (V. ROMANA)
12833,VALLE TALLORIA (BV. CARZELLO)
12836,VALLE TALLORIA (CAPPELLA)
12839,VALLE TALLORIA (POSTA)
12842,VALLE TALLORIA (CROCE)
12845,VALLE TALLORIA (BORGO NUOVO)
12848,VALLE TALLORIA (CANALASSO)
12851,SINIO (BOSCHETTO)
12854,SINIO (SANT'ANTONIO)
12857,SINIO (CASCINA FONTANA)
12860,SINIO (CAVALLO)
12863,SINIO (BORGO NUOVO)
12866,SINIO (PILONE CENEROTTO)
12869,SINIO (P.ZA MARCHISIO D'OLINDO)
12872,GALLO (BORZONE)
12875,GALLO (BV. VAL DI SERRA)
12878,GALLO (GIACCO)
12881,GALLO (FARINETTI)
12884,GALLO (GRINZANE)
12887,CASTIGLIONE (LORENZOTTO)
12890,CASTIGLIONE (MONTANELLO)
12893,CASTIGLIONE FALLETTO (V. ROMA)
12896,CASTIGLIONE (V. MONFORTE 1)
12899,CASTIGLIONE (CASE BORGOGNO)
12902,BUSSIA (BORGATA)
12905,MONFORTE (PIAN POLVERE)
12908,MONFORTE (CASCINA FANTINI)
12911,MONFORTE (FONTE SANT'ELIGIO)
12914,MONFORTE (COND. MONTEROSA)
12917,MONFORTE (V. PALESTRO)
12918,MONFORTE (P.ZA MONS. DALL'ORTO)
12920,MONFORTE (SETTE VIE-CORNARETTI)
12923,MONFORTE (CANTINA ROCHE)
12926,MONFORTE (CASA BRUCIATA)
12929,MONFORTE (MANZONI-SOTTANI)
12932,MONCHIERO (FRAZ. CUCCHI)
12935,MONCHIERO (MAESTRA)
12938,SERRALUNGA (FONTANA FREDDA)
12941,SERRALUNGA (BV. PERNO)
12944,SERRALUNGA (FRAZ. SORANO)
12947,SERRALUNGA (BAUDANA)
12950,SERRALUNGA (CASCINA PARAFADA)
12953,SERRALUNGA (BV. CERRATI)
12956,SERRALUNGA (P.ZA CASTELLO)
12959,SERRALUNGA (FRAZ. ONORATI)
12962,SERRALUNGA (BV. SINIO)
12965,SERRALUNGA (CASCINA BAGARINA)
12968,SERRALUNGA (CASCINA ARIONA)
12971,SERRALUNGA (MADONNA DELLA NEVE)
12974,RODDINO (BV. CENTRO)
12977,RODDINO (POZZETTI)
12980,RODDINO (PLUCIO)
12983,RODDINO (CHIESA SANT'ANNA)
12986,MONFORTE (BV. RODDOLI)
12989,MONFORTE (FORNACE)
12992,VOLPIANO (BV. CEBROSA)
12995,VOLPIANO (PISCINA-V. TRENTO)
12998,VOLPIANO (V. TORINO 21)
13001,VOLPIANO (V. TORINO 81-LAGO AZZURRO)
13004,VOLPIANO (V. TORINO 149)
13007,SETTIMO (V. TORINO/V. DE NICOLA)
13010,SETTIMO (V. TORINO-LUCCHINI)
13013,SETTIMO (MOTORIZZAZIONE)
13046,SAN BENIGNO (V. IVREA 25)
13052,FOGLIZZO (OFF. VECCHIA)
13055,FOGLIZZO (V. ROMA)
13060,FOGLIZZO (V. UMBERTO I 67)
13061,FOGLIZZO (V. CALUSO/V. CAVOUR)
13063,SAN GIUSTO (MOTTURA)
13066,SAN GIUSTO (V. XXV LUGLIO/V. NIGRA)
13069,SAN GIUSTO (PESO)
13072,RIVAROLO (C.SO ITALIA)
13075,RIVAROLO (CASCINA LEA)
13078,SAN GIUSTO (CAPPELLA)
13081,SAN GIUSTO (BV. LUSIGLIÈ)
13087,SAN GIORGIO (V. MARCONI)
13090,SAN GIORGIO C.SE
13093,SAN GIORGIO (BV. CUCEGLIO)
13094,SAN GIORGIO (BV. CUCEGLIO 2)
13096,SAN GIORGIO (V. MONTALTO-KM 2)
13102,MONTALENGHE (V. MEINARDI)
13108,VILLATE (VILLATE-VILLA DEL BOSCO)
13111,VILLATE
13114,BESSOLO
13120,OZEGNA (PALAZZETTO DELLO SPORT)
13126,AGLIE' (CASCINA MALESINA)
13132,AGLIE' (COND. OLIVETTI)
13135,AGLIE'
13138,AGLIE' (CAMPO SPORTIVO)
13141,AGLIE' (ILTAR)
13144,AGLIE' (BV. SANTA MARIA)
13147,BAIRO (CIRCONVALLAZIONE)
13150,TORRE (BV. BAIRO)
13153,TORRE (PESO)
13156,BALDISSERO (CIMITERO)
13159,SCARMAGNO (MASERO)
13162,SCARMAGNO (SP82-STABILIMENTO)
13171,BRUSASCO (P.ZA RITANA)
13209,ALPIGNANO (P.ZA ROBOTTI)
13218,ALPIGNANO (V. CASELETTE-STAB. PHILIPS)
13221,CASELETTE (C.SO SUSA/V. GALILEI)
13222,CASELETTE (C.SO SUSA/V. ALPIGNANO)
13223,CASELETTE (C.SO SUSA/V. RAVETTO)
13225,CASELETTE (C.SO SUSA/STR. DEI PRATI)
13233,CASELETTE (C.SO SUSA 231)
13236,CASELETTE (C.SO SUSA 242)
13237,CASELETTE (BV. REG. GRANGIOTTO)
13239,CASELETTE (C.SO SUSA 330)
13242,CASELETTE (SP 198/C.SO SUSA)
13245,MILANERE (V. ALMESE 60)
13248,MILANERE (V. ALMESE 65)
13251,MILANERE (V. ALMESE 31)
13254,DRUBIAGLIO (BIVIO)
13257,RIVERA (CAEM)
13260,RIVERA (P.ZA COMBA)
13263,ALMESE (V. RIVERA 41)
13264,RIVOLI (V. DON MURIALDO) CAP
13266,ALMESE (V. CADUTI)
13269,ALMESE (P.ZA MARTIRI)
132699,ALMESE (P.ZA MARTIRI)
13272,VILLARDORA (BV. RUBIANA)
13275,VILLARDORA (PIZZERIA)
13278,VILLARDORA (V. S.AMBROGIO/V. BARATTA)
13281,VILLARDORA (V. S.AMBROGIO 63)
13284,VILLARDORA (V. S.AMBROGIO/V. CANAVERE)
13287,VILLARDORA (TORRE DEL COLLE)
13290,NOVARETTO (V. DE GASPERI 99)
13293,CAPRIE (V. DE GASPERI/V. CELLE)
13296,NOVARETTO (CHIESA)
13299,CAPRIE (V.LE KENNEDY/V. SAN MICHELE)
13302,CAPRIE (COMUNE)
13305,CAPRIE (V. ROMA)
13308,CAPRIE (V. ROMA-CASTELLO)
13311,CONDOVE (V. TORINO 58)
13314,CONDOVE (V. TORINO 19)
13329,RIVOLI (CORSO SUSA / CORSO DE GASPERI)
13332,RIVOLI (CENTRO COMMERCIALE)
13335,RIVOLI (FRAZ. PEROSA)
13338,ROSTA (SIRENA)
13341,ROSTA (CORSO MONCENISIO / STRADA AMBARURA)
13344,ROSTA (CORSO MONCENISIO / STRADA DELLA RISERA)
13350,FERRIERA (CORSO TORINO - DISTRIBUTORE)
13351,FERRIERA (V. DELLA TORRE-CAP)
13353,FERRIERA (C.SO SUSA 5/V. GATTA)
13356,FERRIERA (TEKSID)
13357,AVIGLIANA (V. FALCONE-POLIAMBULATORIO)
13359,AVIGLIANA (CORSO TORINO - DISTRIBUTORE)
13362,AVIGLIANA (CORSO DORA - STAZIONE)
13365,AVIGLIANA (GRANGIA)
13368,ALMESE (V. AVIGLIANA 117)
133688,ALMESE (V. AVIGLIANA 119)
13371,ALMESE (V. AVIGLIANA 85)
13374,ALMESE ( MALATRAIT I )
13377,ALMESE ( MALATRAIT II )
13380,ALMESE (V. COPERTILI)
13383,ALMESE (FRAZ. SOFFIETTI)
13386,RUBIANA (FRAZ. TETTI)
13389,RUBIANA (VIA ROMA - DEPOSITO GTT)
13392,RUBIANA (P.ZZA ROMA)
13425,NIQUIDETTO
13428,BERTESSENO (BIVIO)
13434,ALPIGNANO (V. SUSA-DISTRIBUTORE)
13459,TORINO (C.SO STATI UNITI/C.SO RE UMBERTO) CAP
13488,LORANZE' CAMPANA (DISTRIBUTORE)
13529,ORBASSANO (NUOVA ROTONDA)
13550,RIVALTA (FRAZ. GERBOLE-CAUDANO)
13553,RIVALTA (FRAZ. PRABERNASCA-V. PIOSSASCO)
13556,RIVALTA (FRAZ. PRABERNASCA-V. SANGANO)
13559,BRUINO (V. ORBASSANO/V. MARCONI)
13562,BRUINO (ALBA SERENA)
13571,BRUINO (V. TORINO/V. CORDERO)
13574,BRUINO (V. SUSA-PINEROLO 70)
13577,SANGANO (VILLA AUGUSTA)
13580,SANGANO (V. PINEROLO SUSA 78)
13583,SANGANO (VILLAGGIO LA LUCCIOLA)
13586,TRANA (BORG. MORANDA)
13589,TRANA (BORG. GALLETTO)
13592,TRANA (CAVE)
13595,TRANA (V. XX SETTEMBRE)
13598,TRANA (BV. REANO)
13600,TRANA (SANTUARIO)
13603,TRANA (S.BERNARDINO-BORG. UDRITTO)
13606,TRANA (S.BERNARDINO-V. RIVOLI)
13607,TRANA (S.BERNARDINO-GIARDINI REA)
13609,TRANA (S.BERNARDINO-CASERMA)
13612,TRANA (S.BERNARDINO-BORG. USSEGLIO)
13615,GIAVENO (DOGALI)
13618,GIAVENO (BORG. POGOLOTTI)
13621,GIAVENO (LAC DOR)
13624,GIAVENO (P.LE OPERATORI DI PACE)
13627,GIAVENO (V.LE REGINA ELENA)
13633,BRUINO (V. VOLVERA)
13651,GIAVENO (VIA COAZZE - DEPOSITO GTT)
13672,ORBASSANO (V. PARINI)
13675,RIVAROLO (LUPA)
13687,RIVALTA (TETTI FRANCESI-ALLEMANDI)
13688,PIOSSASCO (VIA ADIGE)
13690,PIOSSASCO (CASCINA GAROLA)
13693,PIOSSASCO (FORNACI BALLA)
13696,PIOSSASCO (BAR GINO)
13699,PIOSSASCO (V. SUSA/V. CAVOUR)
13702,PIOSSASCO (PORTICI)
13705,PIOSSASCO (PESO)
13708,PIOSSASCO (MARCHILE)
13711,PIOSSASCO (MILONE)
13714,PIOSSASCO (V. CAPPELLA)
13717,PIOSSASCO (BV. COMBE)
13723,CUMIANA (CASCINASSA)
13726,CUMIANA (LO SCUDIERO)
13729,CUMIANA (LUISETTI)
13732,CUMIANA (BIVIO)
13735,CUMIANA (FRAZ. NEVE)
13738,CUMIANA (ELASTOR)
13741,CUMIANA (FRAZ. PIEVE)
13744,CUMIANA (VILLAGGIO SANT' ANNA)
13750,CUMIANA (V. PROVINCIALE 1)
13754,CUMIANA
13757,CUMIANA (STR. SAN MARTINO)
13760,CUMIANA (TAVERNETTE)
13763,CUMIANA (SAN GIACOMO)
13766,FROSSASCO (STR. DEL VALLONE)
13772,FROSSASCO (BIVIO)
13775,FROSSASCO (TROMBOTTO)
13778,ROLETTO (BV. ROLETTO)
13784,PINEROLO (V. GALILEI)
13793,PINEROLO (MACUMBA)
13796,PINEROLO (SAN LAZZARO)
13799,PINEROLO (BV. CARMAGNOLA)
13805,PINEROLO (P.ZA CAVOUR)-CAPOLINEA
13808,FROSSASCO (V. DEL BOSCHETTO)
13811,FROSSASCO (V. BV. 5)
13814,FROSSASCO (P.ZA ROMA)
13817,FROSSASCO (BV. ROLETTO)
13820,FROSSASCO (CARABINIERI)
13823,CANTALUPA (P.ZZA JUVENAL)
13877,RIVOLI (STR. S.MARIA)
13880,CORBIGLIA (STR. PIAI)
13883,CORBIGLIA (STR. CASC.TAVOLARA)
13886,CORBIGLIA
13887,VILLARBASSE (FRAZ.CORBIGLIA-STR. DELLA BASSA)
13889,CORBIGLIA (V. TOLAI)
13892,VILLARBASSE (V. CROCE SANT'AMATO)
13895,VILLARBASSE (V. PREILES)
13904,VILLARBASSE (V. BRAIDA)
13907,VILLARBASSE (BV. SANGANO)
13910,VILLARBASSE (REG. AVENAT)
13913,REANO (V. VILLARBASSE)
13916,REANO (V. DELLA NOMBARDA)
13919,REANO (V. ROMA 24)
13937,RIVOLI (BORGONUOVO)
13943,ROSTA (V. UGIE)
13946,ROSTA (V. SABBIONERA)
13949,ROSTA (V. MARCONI)
13952,ROSTA (P.ZA IV NOVEMBRE)
13955,ROSTA (P.ZA CADUTI DI NASSIRYA)
13958,ROSTA (V. MARGROT)
13959,AVIGLIANA (P.ZA DEL POPOLO)
13961,BUTTIGLIERA (V. RAGAZZI DEL 99-MADONNA DEI BOSCHI)
13964,BUTTIGLIERA (C.SO SUPERGA/STR. DEGLI ABAY)
13967,BUTTIGLIERA (C.SO SUPERGA-BANCA)
13968,BUTTIGLIERA (C.SO SUPERGA 7)
13982,BUTTIGLIERA (BORG.NICOLA)
14015,RIVOLI (V. RIVALTA 110)
14016,RIVOLI (V. RIVALTA 89)
14018,RIVALTA (STAB. RESCOM)
14023,RIVAROSSA (FRAZ. GRANGETTO)
14024,RIVALTA (V. EINAUDI/STR. S.VITTORE)
14026,FRONT (GRANGE)
14033,RIVALTA (V. MORIONDO/V. LA MALFA)
14048,ORBASSANO (SCUOLE)
14120,CASTELLAMONTE (CASCINA GINESTRA)
14186,PIOSSASCO (VILLAGGIO LA QUERCIA)
14189,PIOSSASCO (V. SUSA/V. CARMAGNOLA)
14192,LOMBARDORE (MULINO)
14195,RIVAROSSA (V. S.FRANCESCO)
14198,RIVAROSSA
14201,RIVAROSSA (DEPOSITO)
14205,BUSANO (BV. CIMITERO)
14209,FRONT (GRANGE-BIVIO)
14212,FRONT (SP.39)
14215,FRONT (BV. GRANGE)
14218,FRONT (SCUOLE)
14221,FRONT (CARTIERA)
14224,FRONT (BAR PAULA)
14230,FRONT (FRAZ. RIVERA)
14233,BUSANO (STAB. FILS ESSECI)
14236,BUSANO (CASCINA GRANGIASSA)
14239,BUSANO (V. IGONETTI)
14245,RIVARA (FRAZ. RESSIA)
14248,RIVARA (FRAZ. S.BERNARDINO)
14251,RIVARA (P.ZA BARBACANIA)
14254,RIVARA (OFF. ROSTAGNO)
14257,FORNO (FRAZ. MUSSOTTI)
14260,FORNO (FRAZ. CROSI)
14263,FORNO (COOPERATIVA)
14266,FORNO (FRAZ. MARIETTI)
14269,FORNO (DEPOSITO GTT)
14311,SAN FRANCESCO AL CAMPO (V. ROMA)
14314,SAN FRANCESCO AL CAMPO (FRAZ. S.ANNA)
14317,SAN FRANCESCO AL CAMPO (BV. SEDIME)
14320,SAN FRANCESCO AL CAMPO (L'ASSUNTA)
14323,SAN FRANCESCO AL CAMPO (FRAZ. CENTRO)
14326,PALAZZO GROSSO (V. TORINO/V. 25 APRILE)
14332,FRONT (BV. VAUDA)
14335,BARBANIA (BV. GIANOTTI)
14338,BARBANIA (CARABINIERI)
14341,FORNO (MAGLIO)
14344,BARBANIA
14392,CASELLE (STR. AEROPORTO 44)
14395,SAN MAURIZIO (OSPEDALE F. FRATELLI)
14398,SAN MAURIZIO
14400,SAN MAURIZIO (V. REMMERT 12)
14405,SAN MAURIZIO (C.SO MATTEOTTI/V. VALLE)
14407,SAN MAURIZIO (V. DE AMICIS 28)
14410,SAN FRANCESCO AL CAMPO (FRAZ. GAMBERI)
14416,CASELLE (AEROSTAZIONE)
14418,CASELLE (ALENIA SUD)
14425,CASELLE (AERITALIA NORD)
14431,MALANGHERO
14434,MALANGHERO (BV. S.MAURIZIO)
14437,SAN FRANCESCO AL CAMPO (SEDIME)
14440,CIRIE' (V. ROMA/P.ZZA LORETO)
14443,CIRIE' (P.ZA CASTELLO)
14447,CIRIE' (STAZIONE)
14450,LANZO (MOVICENTRO)
14453,GERMAGNANO (STAZIONE FERROVIARIA)
14459,GERMAGNANO (PIAN BAUSANO)
14462,GERMAGNANO (BV. CASTAGNOLE)
14465,VIU' (BORGO)
14466,VIU' (BV. TOGLIE)
14467,VIU' (LOC. MALPASSO)
14468,VIU' (FUBINA)
14469,VIU' (LOC. FURNA')
14470,VIU' (LOC. PORTE)
14471,VIU' (MONDREZZA)
14472,VIU' (BV. OLDRI)
14473,VIU' (P.ZA VITTORIO VENETO)
14474,VIU' (P.ZA 24 MAGGIO)
14475,VIU' (VERSINO)
14476,VIU' (SP32 KM 13)
14477,VIU' (FUCINE-BV. COL DEL LYS)
14480,VIU' (LOC. GUICCIARDERA)
14483,VIU' (LOC. TRICHERA)
14484,VIU' (SP32 KM 17)
14485,"LEMIE (SP32 KM 18,5)"
14486,LEMIE (FORNO)
14489,LEMIE (VILLA)
14492,LEMIE
14495,LEMIE (CHIANDUSSEGLIO)
14496,LEMIE (LOC. CHIAMPIETTO)
14498,LEMIE (SALETTA)
14501,USSEGLIO (PIAZZETTE)
14504,USSEGLIO (PIANETTO)
14507,USSEGLIO (CHIABERTO)
14510,USSEGLIO (CENTRO)
14513,USSEGLIO (VILLARETTO)
14516,USSEGLIO (CAPOLINEA)
14534,VIU' (LOC. MOLAR)
14537,COL SAN GIOVANNI (BV. RICHIAGLIO)
14540,COL SAN GIOVANNI
14552,CASELLE (STAZIONE/V. AUDELLO)
14555,CASELLE (STR. CIRIE'/V. DEGLI OROLOGI)
14558,CASELLE (STR. CIRIÈ 46)
14561,CASELLE (CIRIÈ/BALLARINI)
14564,CASELLE (STR. CIRIÈ 199)
14567,SAN MAURIZIO (FRAZ. CERETTA)
14570,SAN MAURIZIO (CERETTA/V. TORINO 67)
14573,CIRIE' (LOC. BARELLA)
14576,CIRIE' (STR. TORINO 112)
14582,CIRIE' (TORINO/REMONDI-IST.GRASSI)
14585,CIRIE' (V. TORINO/DISTR. AGIP)
14588,BARBANIA (V. DI COLLE)
14615,CIRIE' (OSPEDALE)
14618,CAVAGNOLO (CINEMA)
14621,CAVAGNOLO (FRAZ. FRANZE)
14623,CARAMAGNA (FUCINA)
14626,CAVAGNOLO (BV. MARCORENGO)
14627,BROZOLO (STAZIONE FERROVIARIA)
14630,BROZOLO
14633,BROZOLO (PIRENTA)
14636,ROBELLA (BIVIO)
14639,ROBELLA (CAVALLO BIANCO)
14640,S. ANNA (CENTRO)
14642,ROBELLA (BV. MONTIGLIO)
14645,MURISENGO (LOC. GALLO)
14648,MURISENGO
14651,MURISENGO (LOC. RIVO)
14654,MURISENGO (S.CANDIDO)
14657,MURISENGO (S.CANDIDO-FORNACE)
14660,MURISENGO (BV. VILLADEATI)
14663,ODALENGO GRANDE (POZZO)
14666,ODALENGO GRANDE (BV. S.ANTONIO)
14669,ODALENGO GRANDE (BIVIO)
14672,VALLE CERRINA (BV. MONTALERO)
14675,VALLE CERRINA (BV. PIANCERRETO)
14678,VALLE CERRINA (STAB. PETRINI)
14681,VALLE CERRINA
14684,VALLE CERRINA (PATELEC)
14687,VALLE CERRINA (PATELEC)
14690,MONTALDO (BIVIO)
14693,GAMINELLA (CASE SPARSE)
14696,GAMINELLA (BV. POZZENGO)
14699,GAMINELLA (BV. MOMBELLO)
14702,CASALINO (BIVIO)
14705,SERRALUNGA (BV. MORSINGO)
14708,MONCARATO (CASC. GAMBARELLO)
14711,SERRALUNGA (BV. MONCARATO)
14714,SERRALUNGA (BV. SOLONGHELLO)
14717,SERRALUNGA (BV. CASTAGNONE)
14720,SERRALUNGA (MADONNINA)
14723,SERRALUNGA (BV. CERESETO)
14726,SERRALUNGA (DUE PUNTE)
14729,OZZANO (BV. QUARTI)
14732,OZZANO
14735,SAN GIORGIO MONFERRATO
14738,SAN GIORGIO (STAB. VALMET)
14741,SAN GIORGIO (BV. S.GERMANO)
14744,CASALE (OSPEDALE)
14747,CASALE (C.SO VALENTINO 182)
14750,CASALE (C.SO VALENTINO 66)
14753,CASALE (TERMINAL)
14760,CASALE (P.ZZA VENEZIA)
14765,CASALE (STAZIONE FS)
14822,VILLADEATI (CENTRO)
14825,ZANCO (QUARTA)
14828,ZANCO (BV. FONTANINA)
14831,TRITTANGO
14834,ALFIANO NATTA (CARDONA)
14837,ALFIANO NATTA (BV. CASARELLO)
14840,ALFIANO NATTA (P.ZA VITT.EMANUELE III)
14843,TONCO (CASE PALETTI)
14846,TONCO
14849,TONCO (CASORZO)
14852,TONCO (FORNACE)
14855,FRINCO (BV. MOLINASSO)
14858,CASTELL'ALFERO (BV. CASALINO)
14867,CASTELL'ALFERO (STAZIONE FS)
14870,CASTELL'ALFERO
14873,CASTELL'ALFERO (CASOTTO)
14876,CASTELL'ALFERO (BV. SERRA PERNO)
14879,PORTACOMARO (CENTRO)
14882,PORTACOMARO (ISOFLUSS)
14885,VALGERA COPPI
14886,ASTI (C.SO CASALE-IPERMERCATO IL BORGO)
14887,ASTI (C.SO CASALE/V. DESIDERI)
14888,ASTI (C.SO CASALE /V. TOSI)
14891,ASTI (P.ZA VITTORIA)
14894,ASTI (C.SO FERRARIS/V. TORRICELLI)
14900,MURISENGO (BRICCO)
14903,MURISENGO (BV. ALBARENGO)
14906,COLCAVAGNO (BIVIO)
14909,SCANDELUZZA (LOC. CANTONE)
14912,SCANDELUZZA (MUNICIPIO)
14915,SCANDELUZZA (FINE PAESE)
14921,RINCO (BV. SP. 22)
14924,ZANCO (BV. SP. 22)
14927,FRINCO (COMUNE)
14930,FRINCO (SAN ROCCO)
14933,SAN DEFENDENTE (LOC. GERBETTO)
14936,SAN DEFENDENTE
14939,SAN DEFENDENTE (MULINO)
14942,CALLIANETTO (BV. CASTELL'ALFERO)
14945,CALLIANETTO (V. LASCA)
14948,CALLIANETTO (STR. ASTI 58)
14951,CALLIANETTO (PROLA)
14954,CALLIANETTO (GIROLA)
14957,CALLIANETTO (VALMAGGIORE)
14960,VALGERA COPPI (PIANO POLA)
14963,CALLIANETTO (LOVISONE)
14966,CALLIANETTO (LOVISONE)
14969,SAN CARLO (CASE SPARSE)
14972,SAN CARLO (CASE GIAIETTI)
14975,SAN CARLO (P.ZA VERRUA)
14981,LUSIGLIE'
14984,CICONIO (V. DON ODDONINO /SP41)
14987,CICONIO (V. DON ODDONINO)
14988,CICONIO (V. DON ODDONINO /SP41)
14990,CICONIO (BORG. DE LAURENTIS)
14993,BARBANIA (FRAZ. PIANA)
14998,LUSIGLIE' (BIVIO)
14999,SAN GIOVANNI
15002,BALDISSERO
15005,BALDISSERO (TORRE CIVES)
15008,VIDRACCO (BV. VESPIA)
15011,VIDRACCO
15014,ISSIGLIO (BIVIO)
15017,VISTRORIO (FARMACIA)
15020,VISTRORIO
15023,ALICE (GAUNA)
15026,RUEGLIO (BIVIO)
15029,ALICE (BIVIO)
15032,ALICE (REG. CANAPRE SUP.)
15035,ALICE (BV. BROSSO)
15038,MEUGLIANO (REG. FRERA)
15041,MEUGLIANO (REG. PREE)
15044,MEUGLIANO (BV. TRAUSELLA)
15047,MEUGLIANO (CHIESA)
15050,VICO (NOVAREGLIA)
15051,"VICO (SP66 KM 6,1)"
15053,VICO (P.ZA GARIBALDI)
15056,VICO (REG. CASSE')
15059,DRUSACCO (POSTA)
15062,DRUSACCO (REG.CAMPEL)
15065,DRUSACCO (REG.SPINASSE)
15068,DRUSACCO (REG.PUMAREI)
15071,TRAVERSELLA (COMBA D'ARA)
15074,TRAVERSELLA (BV. MINIERE)
15077,TRAVERSELLA
15080,ISSIGLIO (V. LUNGORA)
15083,ISSIGLIO
15086,VISTRORIO (BIVIO)
15089,LUGNACCO (V. ROMA)
15092,LUGNACCO
15094,LUGNACCO (SP65)
15095,PECCO (CHIESA)
15098,PECCO
15101,PECCO (BV. CIRCONV.)
15110,ALICE
15113,ALICE (REG. MATTAREGLIO/CHIESA)
15116,ALICE (LAGO)
15119,ALICE (REG. TRUC DEL DUR)
15122,ALICE (REG. MUCCHIANDO)
15125,ALICE (REG. MOLINERA)
15128,LESSOLO (REG. MARSA)
15131,LESSOLO (V. ALICE 63)
15134,LESSOLO (V. ALICE 51)
15137,LESSOLO (V. ALICE 4)
15140,LESSOLO (V. VITTORIO VENETO)
15143,LESSOLO (LOC. RIO'-V. MARENDA)
15146,LESSOLO (FRAZ. MAGNUS 41)
15149,LESSOLO (FRAZ. MAGNUS)
15152,LESSOLO (CAMPO SPORTIVO)
15155,FIORANO (CANTON MOLARISSE-V. LESSOLO)
15158,FIORANO (CANTON CUSAIRON-V. IVREA 36)
15164,INVERSO
15167,INVERSO (REG. CIAPEI)
15170,INVERSO (REG. VEISA)
15173,TRAUSELLA
15179,RUEGLIO
15185,VICO (CIRCONV./SCUOLE)
15188,VICO (REG. CAMPER)
15191,BROSSO (REG.BATTAGLIA/CAMPO SPORTIVO)
15192,BROSSO (SP.66/V. SAPEL)
15194,BROSSO
15197,SILVA
15200,SILVA (BIVIO)
15206,SAN MARTINO (BV. VIALFRE')
15209,SAN MARTINO
15217,VIALFRE'
15223,LESSOLO (V. IV NOVEMBRE/CAPOLINEA)
15229,AZEGLIO (BV. PIANE)
15232,AZEGLIO (FRAZ. CASTELLAZZO)
15235,AZEGLIO (FRAZ. PIANE)
15238,AZEGLIO (FRAZ. PIANE 42)
15241,AZEGLIO (CALCINARA)
15244,AZEGLIO (CAVALCAVIA)
15247,SETTIMO ROTTARO (V. IV NOVEMBRE/V. DUCA D'AOSTA)
15250,SETTIMO ROTTARO (MUNICIPIO)
15256,CARAVINO
15265,COSSANO (V. TORINO 94)
15269,COSSANO (V. PERRONE)
15271,ALBIANO (BOLLENGO/POBBIA)
15274,AZEGLIO (FRAZ. POBBIA-P.ZA G. ANGELA)
15277,AZEGLIO (FRAZ. POBBIA)
15283,AZEGLIO (P.ZA M. D'AZEGLIO)
15340,VEROLENGO (VALENTINO)
15341,VEROLENGO (V. MOSA)
15361,CRESCENTINO (V.COLOMBO)
15364,CRESCENTINO (P.L.)
15367,CRESCENTINO (V. ODETTI/V. GIOTTO)
15388,ALFIANO NATTA (POSTA)
15394,SANICO (V. VITT. EMANUELE III)
15439,MASINO
15474,LESSOLO (V. FRANZA/V. MIGLIORE)
15477,CALEA (V. MARIO FRANZA/MULINI DI CASALE)
15480,CALEA (P.ZA CHIESA)
15483,CALEA (V. FRANZA/V. SIBIA)
15486,CALEA (V. FRANZA/CIRCONVALLAZIONE)
15489,BAIO DORA (RIO ROSSO)
15492,BAIO DORA (V. NICOLETTA)
15495,BAIO DORA (SAN ROCCO)
15498,QUASSOLO (V. SAN ROCCO)
15501,QUASSOLO (V. SAN ROCCO/REG. CHIARO)
15507,QUASSOLO (P.ZA COMBATTENTI) CAP
15543,MONTALENGHE (V. MONTEBELLO)
15546,ORIO (CIMITERO)
15549,ORIO (P.ZA TAPPARO)
15552,CUCEGLIO
15564,LORANZE' BASSO (V. BRUN)
15567,LORANZE' (V. FRANCESETTI)
15570,LORANZE' ALTO
15575,CUCEGLIO (CASCINA CUFFIA)
15614,MONCALIERI (V. POSTIGLIONE/V. F.LLI CEIRANO)
15674,SANTENA (SAN SALVÀ)
15677,SANTENA (VALEO)
15680,POIRINO (MAROCCHI-SCAMBIO)
15683,POIRINO (MAROCCHI-CHIESA)
15686,POIRINO (BV. PESSIONE)
15692,POIRINO (MOBILIFICIO SANTI)
15695,POIRINO (V. INDIPENDENZA)
15698,POIRINO (ANNUNZIATA)
15701,POIRINO (CENTRAL DRINK)
15704,POIRINO (V. TERNAVASSO)
15707,POIRINO (VEMAIL)
15710,PRALORMO (REG. MARESCO)
15713,POIRINO (BECCHIO)
15716,POIRINO (GELATERIA)
15719,PRALORMO (SATIP PLASTIC)
15722,PRALORMO (SCARRONE)
15749,CANALE (VINDOLINI)
15764,BALANGERO (SEMAFORO STAZIONE)
15770,MATHI (SEMAFORO CIMITERO)
15776,GROSSO (SEMAFORO VILLANOVA)
15779,NOLE (SEMAFORO VAUDA)
15809,BUSANO (BV. SAN ANTONIO)
15810,BUSANO (POMATA)
15819,FORNO (V. EINAUDI)
15821,FORNO (CIMITERO)
15824,PRATIGLIONE (BV. STR. NUOVA CARELLA)
15827,PRATIGLIONE
15830,PRATIGLIONE (CHIAPPIGNOLO)
15833,PRASCORSANO (MORINA)
15839,PRASCORSANO (BV. BELMONTE)
15842,PRASCORSANO
15848,PRASCORSANO (PRABASONE)
15849,PRASCORSANO (PONT CANAVET)
15850,PRASCORSANO (BREDA)
15851,PRASCORSANO (LOC. S.MARTA)
15854,SAN COLOMBANO (LOC. BOASCA)
15855,SAN COLOMBANO (CRESTO)
15856,SAN COLOMBANO (CRESTO)
15857,SAN COLOMBANO (V. VILLA)
15863,CANISCHIO (BV. FOREST)
15866,CANISCHIO (CASE FERRERO)
15869,CANISCHIO (BORG.RIAPETTO)
15872,CANISCHIO (FRAZ.RUA)
15875,CANISCHIO
15878,CUORGNE' (BV. RONCHI)
15881,BUSANO (V. CIRCONVALLAZIONE)
15883,BUSANO (PANIFICIO BIANCO)
15884,PERTUSIO (BV. S.PONSO)
15885,PERTUSIO (BOCCIOFILA)
15887,PERTUSIO (CENTRO)
15890,SAN PONSO (CENTRO)
15898,SPARONE (STAB. CERESA)
15899,SPARONE (ROSA BIANCA)
15902,SPARONE (FRAZ. APPARE')
15905,SPARONE (FRAZ. CALSAZIO)
15908,SPARONE (FRAZ. NOSE')
15911,LOCANA (FRAZ. BOSCO)
15914,LOCANA (FRAZ. PRAIE)
15917,LOCANA (FRAZ. BARDONETTO INF.)
15918,"LOCANA (SS460 KM 40,5)"
15920,LOCANA (FRAZ. BARDONETTO SUP.)
15923,LOCANA (FRAZ. BOSCHIETTO)
15926,LOCANA (V. TORINO 8)
15929,LOCANA (RONCAGLIE-BAR PRADI GOI)
15932,LOCANA (V. TORINO 29)
15935,LOCANA (BOTTEGOTTO)
15938,LOCANA (FRAZ. RONCORE)
15941,LOCANA (FRAZ. CUSSALMA)
15942,LOCANA (FRAZ. CASETTI CIV. 78)
15944,LOCANA (FRAZ. CASETTI)
15947,LOCANA (FRAZ. ROSONE)
15950,LOCANA (FRAZ. FORNOLOSA)
15953,LOCANA (FRAZ. FORNETTI)
15956,LOCANA (FRAZ. ZAUNERE)
15959,LOCANA (FRAZ. LILLA)
15962,NOASCA (FRAZ. PRALILLA)
15965,NOASCA (FRAZ. FRERA INF.)
15968,NOASCA (FRAZ. FRERA SUP.)
15971,NOASCA (FRAZ. FE')
15974,NOASCA (FRAZ. GRUSINER)
15975,"NOASCA (KM 59,200)"
15977,NOASCA (FRAZ. GERA EREDI)
15980,NOASCA (PONTE BORNO)
15983,NOASCA (FRAZ. LA MONIN)
15989,NOASCA
15992,NOASCA (SENTIERO NATURA)
15995,NOASCA (FRAZ. PIANCHETTE)
15998,CERESOLE (INGR. GALLERIA)
16001,CERESOLE (LOC. RIVA)
16004,CERESOLE (FRAZ. PRESE)
16007,CERESOLE (BORG. BRENGI)
16010,CERESOLE (AEM)
16013,CERESOLE (GIORNALAIO)
16016,CERESOLE (PIAN D. BALMA)
16019,CERESOLE REALE
16031,CANALE (CIMITERO)
16034,CANALE (BV. MOLINO-GALLETTO)
16040,VALPONE (CENTRO)
16043,VALPONE (BARBERO)
16046,VALPONE (BV. CAVALLERA)
16052,TORRAZZO (BV. PRIOCCA)
16058,SAN DAMIANO (CIMITERO)
16064,SAN DAMIANO (P.ZZA IV NOVEMBRE)
16067,SAN DAMIANO (V. CARTELLO)
16070,SAN DAMIANO (RONDO')
16073,SAN DAMIANO (RIFRANZONE)
16076,ASTI (TORRE BATIBO)
16079,ASTI (BV. CELLE ENOMONDO)
16082,ASTI (VAGLIERANO-STAZIONE)
16085,ASTI (REVIGNANO)
16091,ASTI (CENTRO ASL)
16094,ASTI (VALLE BENEDETTA)
16095,ASTI (C.SO TORINO 20)
16097,ASTI (PORTA TORINO)
16100,ASTI (P.ZA AMENDOLA-SACLA')
16103,GALLO (BV. GRINZANE)
16109,GALLO (CANTINA GIGI ROSSO)
16115,RODDINO (BV. MONFORTE)
16124,BAROLO (BV. VERGNE)
16139,ASTI (BRICCO FASSIO-PALUCCO)
16140,ASTI (SESSANT)
16141,ASTI (C.SO IVREA-ESSELUNGA)
16142,ASTI (TORRETTA-C.SO TORINO 200)
16148,RIVAROLO (SCUOLE ELEMENTARI-V. ROMA)
16151,RIVAROLO (SCUOLE MEDIE)
16154,SALASSA (V. STAZIONE)
16160,MADONNA DEI CAVALLI (CHIESA)
16163,VALLE S.MATTEO
16169,MONTA' (FRAZ. GHIONI CHIESA)
16172,MONTA' (FRAZ. GHIONI)
16181,MONTA' (SAN ROCCO)
16184,MONTA' (VALLE DEL MORTO)
16187,MONTA' (CHIESA S.VITO)
16189,MONTA' (V. MONTA'/V. MONTESSORI)
16190,CELLARENGO (P.LE UNITA' D'ITALIA)
16191,CELLARENGO (P.ZZA CASTELVECCHIO 11)
16223,S.STEFANO ROERO (BV. MAD. GRAZIE)
16229,S.STEFANO ROERO (BV. VALUNGA)
16232,S.STEFANO ROERO (BV. VAREGLIO)
16235,S.STEFANO ROERO (BV. BORDONI)
16238,S.STEFANO ROERO (VALLE S.LORENZO)
16247,CANALE (MADONNA LORETO)
16250,CISTERNA (LAME)
16256,CISTERNA (DOSSO)
16259,CISTERNA (AL PIANO)
16262,CISTERNA (RISTORANTE GARIBALDI)
16265,CISTERNA (V. DUCA D'AOSTA)
16277,BERTERI (P.ZA DELLA CHIESA)
16280,CASTELLINALDO (BV. S.CARLO)
16283,CANALE (FRAZ. VALPONE)
16286,CASTELLINALDO (PESO)
16289,CASTAGNITO (V. ROMA)
16291,CASTAGNITO (BV. BORBORE)
16292,CASTAGNITO (CASCINA CROERA)
16294,CASTAGNITO (BARACCONE)
16295,GUARENE (BV. MOMBELLI)
16298,GUARENE (POSTA)
16301,GUARENE (CASCINA COSCIA)
16304,CASTELROTTO (P.ZA DELLA POSTA)
16319,BORBORE (CASE DUZZUTO)
16322,VEZZA (BORGO NUOVO)
16325,VEZZA (CHIESA)
16326,S.STEFANO ROERO (BV. MOI)
16328,VEZZA (P.ZA S.BERNARDO)
16361,S.STEFANO ROERO (PILONE MAD. GRAZIE)
16364,MONTA' (VALLE CASETTE)
16370,VEZZA (VAL RUBIAGNO)
16385,S.STEFANO ROERO (MAD. GRAZIE)
16394,CARMAGNOLA (PARCO LA VIGNA)
16395,CARMAGNOLA (SCUOLE)
16397,CARMAGNOLA (STAZIONE FERROVIARIA)
16400,FORNO (VIGNE')
16407,CARIGNANO (P.ZA C. ALBERTO 28)
16436,VILLASTELLONE (AGES)
16439,VILLASTELLONE (LUBRIFICANTI)
16445,VILLASTELLONE (V. CARIGNANO 19)
16448,VILLASTELLONE (BV. CORNALESE)
16451,VILLASTELLONE (STARS)
16466,CARMAGNOLA (V. TORINO/V. BARDONECCHIA)
16469,CARMAGNOLA (V. TORINO/V. AVIGLIANA)
16511,VALLE S.MATTEO (FRA)
16517,CISTERNA (BV. VALMELLANA)
16520,SAN DAMIANO (BV. RONCHESIO)
16523,SAN DAMIANO (BV. VAL SCAGLIANA)
16526,SAN DAMIANO (BV. GORZANO)
16529,GORZANO (CHIESA)
16532,SAN DAMIANO (LEBRETO)
16535,SAN DAMIANO (AL PIANO)
16538,SAN DAMIANO (SCUOLE MEDIE)
16544,SAN DAMIANO (STIZZA)
16553,PRANZALITO
16556,ROBELLA (V. VERDINA BASSA)
16562,MONCALIERI (V. MARTIRI/V. ROMA)
16583,STUPINIGI (CASTELLO)
16610,MURISENGO (LOC. MONDRINO)
16631,CAVAGNOLO (V. MARTIRI LIBERTÀ 55)
16640,SCIOLZE (REG. PRISSOLO)
16643,CISTERNA (S.MATTEO-V. CANALE)
16646,CASTELLINALDO (BV. CANALE)
16649,MADONNA DEI CAVALLI (GATTI)
16652,SAN DAMIANO (FRAZ. S.GIULIO)
16673,SOMMARIVA BOSCO (STAZIONE FS)
16749,VOLPIANO (AUTOSTRADA)
16751,VOLPIANO (CAP STR. BRANDIZZO)
16813,VEROLENGO (SCUOLA ELEMENTARE)
16816,VEROLENGO (SCUOLA MEDIA)
16819,ARBOREA
16825,BUSIGNETTO
16828,VEROLENGO (ROLANDINI)
16831,BORGO REVEL
16834,BORGO REVEL (BENNE)
16837,VEROLENGO (MADONNINA-MATTATOIO)
16840,VEROLENGO (MADONNINA-SANTUARIO)
16843,VEROLENGO (MADONNINA-V.LE)
16845,ALPETTE
16848,ALPETTE (BV. FRAZ. NERO)
16851,ALPETTE (CASA BERNASCA)
16854,ALPETTE (CASA DORO)
16857,CUORGNE' (FRAZ. VENA)
16860,CUORGNE' (FORMIERO)
16863,CUORGNE' (FRAZ. MOIA)
16866,CUORGNE' (FRAZ. FEIE)
16869,CUORGNE' (LAVATOIO)
16905,CASTELLAMONTE (SAN ROCCO)
16906,"CASTELLAMONTE (SP59 KM. 3,060)"
16908,CASTELLAMONTE (FILIA-RISTORANTE VALENTINO)
16909,CASTELLAMONTE (FILIA-CHIESETTA)
16911,CASTELLAMONTE (FILIA-LOC LOCANDA)
16913,CASTELLAMONTE (BV. FRAZ. S.ANNA)
16922,DOGLIANI (V. CAPPA 45)
16925,CIRIE' (S.MAURIZIO/GAZZERA)
16928,PERTUSIO (STAB. TRIONEURO)
16952,MONCHIERO (CIMITERO)
16969,DOGLIANI (P.ZA STAZIONE)
17015,BAROLO (V. BOSCHETTI)
17045,VESTIGNE' (SCUOLE)
17051,MONCHIERO (CAMPO SPORTIVO)
17061,CANALE (V. SERSHEIN-SCUOLE)
17108,TORRAZZO (VALDOISA)
17111,CASTELROSSO (P.ZA DELL'ASSUNTA)
17129,PAVONE (CASCINA MOLLA)
17150,CISTERNA (S.MATTEO-CHIESA)
17162,MONTA' (BV. CELLARENGO)
17201,CERES
17204,MONDOVI' (P.ZA D'ARMI)
17213,VEROLENGO (PIZZA IV NOVEMBRE)
17228,MONFORTE (SAN SEBASTIANO)
17231,MONFORTE (LOC. CAMIA)
17234,MONFORTE (LOC. CHIESE)
17235,IVREA (V. SAUDINO 3 CAP)
17236,IVREA (V. LAGO S.MICHELE/SAUDINO)
17240,IVREA (V. LAGO S.MICHELE/POLVERIERA)
17243,IVREA (V. TORINO/CANTON GABRIEL)
17246,IVREA (V. LAGO S.MICHELE/MONCRAVA)
17249,BIENCA (V. PERONETTO/CASALE CHIALA)
17252,BIENCA (V. PERONETTO/CASALE RICHEDA)
17255,SAN DAMIANO (RONDO')
17258,SAN DAMIANO (P.ZA ROSINA)
17261,SAN DAMIANO (BV. TIGLIOLE)
17267,BRUINO (V. SUSA/V. CUMIANA)
17312,RIVOLI (OSPEDALE)
17336,TORINO (STAZIONE LINGOTTO)
17346,S.ANNA ROBELLA BIVIO
17348,CUNICO (STAZIONE)
17349,MONTECHIARO (CONSORZIO)
17350,MONTECHIARO
17351,MONTECHIARO (STAZIONE)
17352,COCCONATO (CONBIPEL)
17353,COCCONATO (FRAZ. TUFFO)
17354,CHIUSANO (STAZIONE)
17357,SETTIME (STAZIONE)
17360,SERRAVALLE
17366,MONTA' (BV. PILONI)
17369,MONDOVI' (P.ZA MELLANO)
17370,MONDOVI' (MONDOVICINO)
17372,MONDOVI' (C.SO STATUTO)
17375,MONDOVI' (C.SO STATUTO-MUNICIPIO)
17381,CIRIE' (V. BRACCINI)
17384,ALBA (C.SO EUROPA-SCUOLA RODARI)
17387,ALBA (C.SO EUROPA/V. SAN CASSIANO)
17390,NOVELLO (CANTINA SOCIALE)
17393,NOVELLO (BIVIO)
17414,CHIVASSO (TORASSI)
17417,CHIVASSO (COOP/CONC. CARAVAN)
17420,CHIVASSO (C.SO FERRARIS)-IST. UBERTINI
17423,CHIVASSO (C.SO FERRARIS/V. TOGLIATTI)
17426,CHIVASSO (OSPEDALE)
17429,RIVAROLO (PERARDI)
17435,SAN BENIGNO (V. PAPA GIOVANNI XXIII)
17441,CUORGNE' (PEDAGGIO-V. BIXIO)
17444,SAN SEBASTIANO (VILLAGGIO MONTEMISE')
17465,GASSINO (V. BUSSOLINO-CRAI)
17471,CASTAGNETO PO (BV. POGGIO)
17472,CASTAGNETO PO (MEZZAVILLA)
17473,CASTAGNETO PO (STR. MARCA)
17474,CHIVASSO (V. MONTANARO V. FOGLIZZO)
17477,CHIVASSO (BV. MONTEGIOVE)
17478,CASTAGNETO PO (MUNICIPIO)
17479,CASTAGNETO PO (P.ZZA ROVERE)
17480,CASTAGNETO PO (BURDIN)
17481,CASTAGNETO PO (BUCHET)
17482,CASTAGNETO PO (CARETTI)
17483,CASTAGNETO PO (SAN GENESIO)
17484,CASTAGNETO PO (CERIANA)
17485,CASTAGNETO PO (CIMENASCO)
17503,MONTANARO (V. TRIESTE/V. GUELFO)
17506,MONTANARO (V. CAVIGLIETTI/V. BERTINI)
17509,MONTANARO (C.SO I MAGGIO)
17512,MONTANARO (V. TORINO 39)
17527,LEQUIO TANARO (FONDOVALLE PIZZERIA)
17530,FAVRIA (BORG. S.ANTONIO)
17533,GASSINO (V. BUSSOLINO 65)
17536,SCIOLZE (CASCINA FRESCHEA)
17539,SCIOLZE (P.ZA S.ROCCO)
17542,SCIOLZE (REG. CASALE)
17545,SCIOLZE (REG. SAN ROCCO)
17548,CINZANO (S.P.97 N.3)
17551,GASSINO (V. BUSSOLINO-BANCA)
17557,RIVARA (BORG.CROSAROGLIO)
17560,LOCANA (FRAZ. ROSONE UFF. AEM)
17563,CERESOLE (BORG. VILLA)
17575,SAN DAMIANO (BV. VERNEGLIO)
17578,MAZZE' (CASCINA GABRIELLA)
17584,PIOBESI T.SE (V. GALIMBERTI/V. XXV APRILE)
17632,CONDOVE (SCUOLA MEDIA RE)
17644,BOSCONERO (EATON LIVIA)
17659,ALBA (AUTOSTAZIONE)
17683,PONT (CASE COPPI)
17686,FAIALLO (BIVIO)
17721,VEROLENGO (V. CASALE 30)
17738,CASTELL'ALFERO (CASE FLORA)
17741,TONCO (CAMPO SPORTIVO)
17744,CALLIANETTO (V. BERETTA)
17750,CANALE (CASE SACCHETTO)
17753,CANALE (COND. STEFANIA)
17756,MONTA' (BV. CABORA)
17759,MONTA' (CANTINA VIGNA)
17762,MONTA' (S.VITO SUL PIANO)
17765,SALASSA (V. ROSSA)
17786,CASTELROTTO (VILLA)
17789,CASTELLINALDO (BV. MAD. CAVALLI)
17792,MADONNA DEI CAVALLI (GIACONI)
17795,S.STEFANO ROERO (PILONE MARIA AUSIL.-MAD. GRAZIE)
17798,COLLERETTO (V. RIBES 1)
17825,OZZANO (V. LEOPARDI)
17828,FROSSASCO (V. PINEROLO 34)
17831,CANALE (V. ROMA 230)
17834,MONTA' (FRAZ. VITTORI)
17837,CHIVASSO (V. PERTINI)
17840,SAN FRANCESCO AL CAMPO (BV. S. ANNA)
17843,PALAZZO GROSSO (V. TORINO/V. LOTTI)
17877,SAN FRANCESCO AL CAMPO (V. S.CARLO 18)
17880,SAN FRANCESCO AL CAMPO (V. S.CARLO 50)
17892,SAN BENIGNO (LOC. BRUCIATA)
17895,CASALBORGONE (SCUOLE)
17904,MONTA' (CENTRO COMMERCIALE)
17910,PIOZZO (BIVIO)
17913,MONCHIERO (TETTI REA)
17915,CLAVESANA (BV. CARRU')
17916,DOGLIANI (V. TORINO-CATERPILLAR)
17919,DOGLIANI (SAN ROCCO)
17927,SOMMARIVA BOSCO (V. VITT. EMANUELE)
17939,CALUSO (V. MONTELLO)
17942,LESSOLO (V. CAFFARO ALLERA)
17945,LESSOLO CAFFARO ALLERA (SCUOLE MEDIE)
17947,LESSOLO (V. IV NOVEMBRE/V. BREDDA)
17948,ALBIANO (C.SO M. D'AZEGLIO 12)
17949,ALBIANO (C.SO M. D'AZEGLIO 36)
17950,ALBIANO (CASCINA MOTTURONE)
17951,SETTIMO ROTTARO (V. XX SETTEMBRE/V. ROMA)
17952,SETTIMO ROTTARO (CASCINA TALA)
17953,COSSANO (CAPOLINEA)
17955,STRAMBINO (V. CIRC.OVEST/V. MADONNA DEL ROSARIO)
17956,ROMANO (V. CIRC.OVEST/V. S.GRATO)
17957,CARAVINO (V. CAVOUR/V. S.SOLUTORE)
17958,AZEGLIO (FRAZ. POBBIA 41)
17959,PARELLA (S.P. 63/V. S.GIOVANNI)
17960,NOMAGLIO (S.P. PER ANDRATE)
17961,ANDRATE (P.ZA DEL PONTE)
17962,TORRAZZA (V. MAZZINI/STR. CASCINA ROSSA)
17963,MEUGLIANO (BV. PIANURE/BALMELLA)
17964,RUEGLIO (BV. TRAUSELLA)
17965,BOSCONERO (EX SS460 KM. 14950)
17966,FELETTO (V. DELLA GOLA)
18005,PIANEZZA (STAB. VALEO)
18011,VEROLENGO (SBARRO)
18017,RIVARA (BV. LEVONE)
18019,LEVONE (V. RIVARA)
18039,TORINO (C.SO MARCHE-STAB.ABARTH)
18051,VOLVERA (V. MANZONI 10)
18052,ORBASSANO (BOMBARA)
18053,VOLVERA (PANEALBA)
18054,VOLVERA (ITI TRASPORTI)
18055,VOLVERA (STR. ORBASSANO/V. PORDENONE)
18056,VOLVERA (STR. ORBASSANO 70)
18057,VOLVERA (STR. ORBASSANO 55)
18058,VOLVERA (STR. ORBASSANO 5)
18062,VOLVERA (STR. PIOSSASCO/V. GARIBALDI)
18064,VOLVERA (V.LE EUROPA UNITA)
18065,RODDINO (CIMITERO)
18066,VOLVERA (V. GARIBALDI 3)
18067,VOLVERA (V. AIRASCA 46)
18068,VOLVERA (V. AIRASCA 70)
18069,NONE (PIAZZETTA SOLA)
18070,CAMPO
18071,MURIAGLIO
18072,VOLVERA (V. MORO 15)
18101,ROBELLA (SS 590 KM 38)
18104,VOLPIANO (V. BRANDIZZO/V. GENOVA)
18105,VOLPIANO (CC ELICOTTERISTI)
18116,VEROLENGO (P.ZA VITTORIA)
18122,CASABIANCA (SS.11)
18125,CASTELROSSO (MANEGGIO)
18128,CASABIANCA (POLO INDUSTRIALE)
18130,CASTELROSSO (V. S.GIOVANNI)
18133,RONDISSONE (PONTE)
18134,RONDISSONE (V. XX SETTEMBRE)
18140,PIOSSASCO (P.I.P.)
18142,PIOSSASCO (V. VOLVERA/V. P.MICCA)
18144,GERMAGNANO (FUNGHERA)
18146,PESSINETTO (LOSA)
18148,PESSINETTO
18150,MEZZENILE
18152,TRAVES (ROZELLO)
18155,CERESOLE (BORG. MUA)
18226,FOSSANO (SAN GIUSEPPE)
18227,FOSSANO (MOVICENTRO)
18228,FOSSANO (ROTONDA FONTANA)
18229,FOSSANO (APOLLO)
18231,FOSSANO (MAXISCONTO)
18232,FOSSANO (BOSCHETTI)
18233,FOSSANO (TAGLIATA)
18234,FOSSANO (TETTI CHIARAMELLI)
18235,CERVERE (BV. GRINZANO)
18236,CERVERE (SURRAUTO)
18237,CERVERE (V. MARCONI)
18238,CERVERE (TETTI BORI)
18239,CHERASCO (RORETO V. S. ROCCO)
18241,CHERASCO (RORETO V. MONTEGRAPPA)
18242,CHERASCO (RORETO POSTA)
18243,CHERASCO (RORETO ATLANTE)
18244,BRA (BERGOGLIO)
18245,BRA (V. CUNEO/V. ROSSELLI)
18246,BRA (V. CUNEO/BV. V. CHERASCO)
18247,BRA (GULLIVER)
18248,BRA (STR. ORTI /BV. MONTELUPA)
18249,BRA (PENAZZO)
18250,POCAPAGLIA (BV. FS)
18260,CINZANO (LE BETULLE)
18266,CINZANO (MUSCATEL)
18268,ST. VITTORIA D'ALBA (CARNEVALE)
18270,MONTICELLO (LA PREALPINA)
18280,ALBA (LOC. BIGLINI)
18290,ALBA (BV. SCAPARRONI)
18300,TORINO (AUTOSTAZIONE BOLZANO ST. 7)
18312,VENARIA (STAZIONE)
18313,BORGARO (STAZIONE)
18888,CHIUSA S. MICHELE (P.ZZA DELLA REPUBBLICA)
18906,BUSSOLENO (V. FONTAN-MERCATO)
19991,_
19992,_
19995,_
20081,CERONE (BV. CERONE)
20083,STRAMBINO
20095,CROTTE (V. S.CARLO/BV. STRAMBINO)
20098,VISCHE (V. AMIONE/BV. CALUSO)
20119,RIVALTA (FIAT RIVALTA-CANC. 11)
20128,RIVALTA (FIAT RIVALTA-CANC. 9)
20365,TORINO (C.SO G.CESARE/LUNGO STURA LAZIO)
20419,SETTIMO (V. MILANO/V. BRESCIA)
20421,SETTIMO (HOTEL GREEN CENTER)
20424,SETTIMO (STAB. REJNA)
20430,SETTIMO (MEZZI PO)
20436,BRANDIZZO (V. TORINO/V. ROSSELLI)
20439,BRANDIZZO (MERCATONE)
20442,BRANDIZZO (CAMPO SPORTIVO)
20445,BRANDIZZO (V. TORINO/V. PASUBIO)
20448,BRANDIZZO (CENTRO)
20451,BRANDIZZO (V. TORINO/V. BOLOGNA)
20454,BRANDIZZO (ALBERGO PINETA)
20460,CHIVASSO (CASELLO 20-RIVOIRA)
20463,CHIVASSO (STR. TORINO 45)
20472,CHIVASSO (V. PO)
20475,CASTAGNETO PO (BV. CHIVASSO)
20478,CASTAGNETO PO (BV. PONTE PO)
20481,CASTAGNETO PO (BARACCONE)
20484,SAN SEBASTIANO (GILARDINI)
20487,SAN SEBASTIANO (ABATE)
20490,SAN SEBASTIANO (ABATE)
20493,SAN SEBASTIANO (CADAUTA)
20496,SAN SEBASTIANO (CASERMA)
20499,SAN SEBASTIANO (CASCINA MOGLIA)
20502,LAURIANO (LUXOTTICA)
20505,LAURIANO (BIVIO)
20508,MONTEU DA PO (BIVIO)
20511,MONTEU DA PO (FONTANA NERA)
20514,CAVAGNOLO (V. CA' D'OSTINO)
20517,CAVAGNOLO (PIANA DI CAVAGNOLO)
20520,CAVAGNOLO (CENTRO)
20523,BRUSASCO
20526,BRUSASCO (SCUOLE)
20532,CHIVASSO (P.ZA D'ARMI-CRT)
20535,CHIVASSO (POSTA)
20560,SETTIMO (CIMITERO)
20565,CASERMA (BV. STAZIONE FS)
20568,CASERMA-COLOMBARO (BAR)
20571,CASERMA-COLOMBARO (TORRE)
20574,SAN SEBASTIANO (V. VIGONDA)
20577,SAN SEBASTIANO (ROTTENGA)
20580,CASALBORGONE (BOCCIODROMO)
20583,CASALBORGONE (BV. CERAGLIO)
20586,CASALBORGONE (CENTRO)
20607,MONTIGLIO
20610,PIOVA' MASSAIA (P.ZA SAN MARTINO)
20616,CASALBORGONE (VAL FRASCARINA)
20619,CASALBORGONE (BAGATTA)
20622,CASALBORGONE (BROSE LAZZARINO)
20625,CASALBORGONE (CASCINA ROLETTO)
20628,GONENGO
20631,GONENGO (STR. QUASSO)
20634,GONENGO (PERELLO)
20637,GONENGO (MADONNA NERA)
20640,GONENGO (BESOLO)
20643,GONENGO (BV. MARMORITO)
20646,ARAMENGO (BIVIO)
20649,ARAMENGO (BRAIA)
20652,ARAMENGO (GORREA)
20655,COCCONATO (BIVIO)
20658,ROCCO (TABIELLA)
20661,ROCCO (BV. CERRETO)
20664,GALLARETO
20700,BUTTIGLIERA (LE FRONDE)
20703,AVIGLIANA (V. S.AGOSTINO 4-OSPEDALE)
20787,SAN MAURO (SCAMBIO PESO)
20818,GASSINO (SOBRERO)
20820,GASSINO (V. MONTE CERVINO)
20821,GASSINO (V. VAL BAUDANA)
20823,SAN RAFFAELE CIMENA (V. TORINO 45)
20826,PIANA SAN RAFFAELE
20829,SAN RAFFAELE CIMENA (V. CHIVASSO 64)
20832,SAN RAFFAELE CIMENA (V. CHIVASSO 41)
20835,SAN RAFFAELE CIMENA (CA' ROSSA)
20838,SAN RAFFAELE CIMENA
20841,CASTAGNETO PO (SERRAUDA)
20844,CASTAGNETO PO (GALLEANI)
20847,CASTAGNETO PO (BV. CASTAGNETO PO)
20853,SAN RAFFAELE CIMENA (FONTANE)
20856,SAN RAFFAELE CIMENA (TETTI BAUDINO)
20859,SAN RAFFAELE CIMENA (CASCINA CAMINO)
20862,SAN RAFFAELE CIMENA (CASCINA BOASSO)
20865,SAN RAFFAELE CIMENA (CASCINA MANZONI)
20868,SAN RAFFAELE CIMENA ALTO (BIVIO)
20871,RACCONE (CASCINA BARBASSO)
20905,CRESCENTINO (P.ZA MARCONI)
20915,VERRUA (BIVIO)
20918,VERRUA (SP 107 CIV. 135)
20920,BRUSASCO (VERRUA SIBERIA)
20925,BRUSASCO (TRUCCO)
20926,VERRUA SAVOIA (FRAZ. MONTICELLI-SP 10 CIV.31)
20927,VERRUA SAVOIA (FRAZ.VALENTINO-MUNICIPIO)
20940,VERRUA SAVOIA (FRAZ. SULPIANO)
20941,VERRUA SAVOIA (FRAZ. RIVALTA-DIR SULPIANO)
20942,VERRUA SAVOIA (FRAZ. CAMORANO)
20944,VERRUA SAVOIA (FRAZ. RONZO-DIR. CAMORANO)
20947,VERRUA SAVOIA (BV. FRAZ. TABBIA)
20951,CRESCENTINO (P.ZZA JERINO)
20979,BUSSOLINO (CARROZZERIA)
20982,BUSSOLINO (TERNENGA)
20985,BUSSOLINO
20988,SCIOLZE (VILLA DELLE ROSE)
20991,SCIOLZE (BIVIO)
20994,SCIOLZE (REG. MULINO)
20997,SCIOLZE (ALLASIO)
21000,SCIOLZE (TETTI PRISSOLO)
21003,SCIOLZE (REG. VALLE)
21006,SCIOLZE (REG. VALLE)
21009,SCIOLZE (REG. FORNACE)
21012,SCIOLZE (V. ROMA)
21015,SCIOLZE (TETTI ROSSETTI)
21018,SCIOLZE (BV. VERNONE)
21021,SCIOLZE (TETTI FRANCHI)
21024,SCIOLZE (TETTI AIE)
21027,SCIOLZE (REG. MALUNGA)
21030,SCIOLZE (REG. BATTAGLINA)
21033,RIVALBA (BIVIO)
21034,RIVALBA (FONTANA)
21036,BORGIONA (BV. MONTERIOLO)
21039,BORGIONA (VILLA CERRO)
21042,BORGIONA (CASCINA FRATE)
21045,BORGIONA (CASCINA BORGIONA)
21048,SAN ROCCO (CASCINA RACCONE)
21051,CINZANO (PILONE)
21054,CINZANO (REG. ROSSATTI)
21057,CINZANO (BV. APRA')
21072,CROTTE (CHIESA)
21075,CROTTE (V. VISCHE)
21078,VISCHE (CASCINA MONESSA)
21081,VISCHE (CASCINA LUISINA)
21084,VISCHE (CASCINA MOMBELLO)
21087,VISCHE (CASCINA OVA)
21090,VISCHE (V. AMIONE/V. CANDIA)
21093,VISCHE (P.ZA AMIONE)
21096,VISCHE (CIRCOLO IPPICO)
21099,VISCHE (BV. BARENGO)
21102,MAZZE' (CROCE VALLO-CIMITERO)
21105,MAZZE' (V. CAIRELLI/V. VISCHE)
21108,MAZZE' (V. CAIRELLI/V. BERGANDI)
21111,MAZZE' (P.ZA VITT. VENETO)
21114,TONENGO (DISTR. TAMOIL)
21117,TONENGO (CONSORZIO)
21120,TONENGO (P.ZA UGOLINO)
21123,TONENGO (P.ZA PERTINI)
21126,TONENGO (V. GARIBALDI 228)
21129,TONENGO (V. GARIBALDI 273)
21132,TONENGO (CASCINA SAVONERA)
21135,TONENGO (CASCINA CAROLINA)
21138,TONENGO (CASCINA GILETTA)
21141,BOSCHETTO (EDILIAS)
21144,BOSCHETTO (BV. MANDRIA)
21147,BOSCHETTO (BIVIO)
21150,BOSCHETTO (V. CAMPAGNA 11)
21153,BOSCHETTO (P.ZA S.GIOVANNI)
21156,BOSCHETTO (V. S.FRANCESCO/V. CENE)
21159,BOSCHETTO (V. S.FRANCESCO/V. PROVINC)
21165,BETLEMME (V. BORGHETTO)
21168,CHIVASSO (CAPPUCCINI/SCUOLE)
21192,CASALE DI MAZZE' (V. RONDISSONE)
21222,TORRAZZA PIEMONTE (P.ZA PESO)
21225,RONDISSONE (BV. CIGLIANO)
21228,MAZZE' (V. CALUSO/V. CAIRELLI)
21231,RONDISSONE (P.ZA ROMA)
21234,IVREA (V. JERVIS/NUOVI UFFICI OLIVETTI)
21237,IVREA (STAZIONE FERROVIARIA)
21238,IVREA (V. LEVI/V. PAVESE)
21240,IVREA (V. TORINO/V. BELLINI)
21243,IVREA (V. TORINO/CANTON CARASSO)
21244,IVREA (V. LEVI/V. FENOGLIO)
21246,IVREA (V. TORINO/CANTON GIANOTTI)
21264,CROTTE (V. S.CARLO 61)
21267,RONDISSONE (P.ZA DANTE)
21330,IVREA (C.SO VERCELLI/S.LORENZO APT)
21331,IVREA (V. CASCINETTE/S.LORENZO APT)
21336,CALUSO (V. MARTIRI D'ITALIA 45)
21339,CALUSO (COMPUPRINT)
21342,CALUSO (P.ZA MAZZINI)
21348,SAN GERMANO (REG. ROSSETTO)
21351,BORGOFRANCO (V. AOSTA/REG. BREDDA)
21354,BORGOFRANCO (STAZIONE FERROVIARIA)
21357,BORGOFRANCO (V. TORINO/ P.ZA GERMANETTI)
21360,BORGOFRANCO (SS. 26/V. MONTE ROSA)
21363,MONTALTO DORA (V. AOSTA/LOC. PONTE)
21366,MONTALTO DORA (P.LE CHIESA)
21369,MONTALTO DORA (V. IVREA/REG. MULINO)
21372,MONTALTO DORA (V. IVREA/REG. BALME)
21375,MONTALTO DORA (V. IVREA/BALTEA)
21378,IVREA (V. AOSTA/REG. GABELLA)
21381,IVREA (V. AOSTA 83)
21384,IVREA (V. AOSTA/S.ANTONIO)
21387,IVREA (P.ZA PISTONI/PORTA AOSTA)
21390,IVREA (V. GARIBALDI)
21393,IVREA (C.SO NIGRA/P.TA TORINO)
21396,IVREA (V. DI VITTORIO)
21399,IVREA (V. JERVIS/V. MONTENAVALE)
21402,IVREA (V. JERVIS/P.LE AURORA)
21408,BANCHETTE (V. CASTELLAMONTE 25)
21411,BANCHETTE (V. CASTELLAMONTE/V. TORRETTA)
21414,SAMONE (CENTRO)
21417,SAMONE (V. PROVINCIALE-RIBES)
21420,SAMONE (CAPOLINEA)
21432,IVREA (CIRCONVALLAZIONE/V. MONTE STELLA)
21435,IVREA (CIRCONVALLAZIONE/MERCATO)
21438,IVREA (V. CIRCONVALLAZIONE/V. S.ULDERICO)
21441,IVREA (V. TORINO/PONTE XXV APRILE)
21444,IVREA (V. TORINO/CANTON VIGNA)
21447,IVREA (V.LE LIBERAZIONE)
21450,BELLAVISTA (V. DON MINZONI)
21453,BELLAVISTA (ITI)
21456,SALERANO (CAPOLINEA)
21459,SALERANO (V. TESTA)
21462,BANCHETTE (V. SAMONE)
21465,BANCHETTE (V. ROMA)
21466,IVREA (V. PINCHIA)
21468,IVREA (V. CASCINETTE/V. RUFFINI)
21471,IVREA (V. CASCINETTE/V. STRUSIGLIA)
21474,IVREA (V. CASCINETTE/BOSCHEREGGIO)
21477,CASCINETTE (CAMPO SPORTIVO)
21480,CASCINETTE (V. DON FARINETTI)
21483,CASCINETTE (MUNICIPIO)
21486,CASCINETTE (P.LE CHIESA)
21489,CASCINETTE (V. ROMA)
21492,CASCINETTE (CASCINE CROTTA)
21495,BUROLO (V. CANDOSSINO)
21498,BUROLO (V. BREDA/V. CANDOSSINO)
21501,BUROLO (LOC. GERMANINA)
21504,BUROLO (COND. EOLO)
21507,BUROLO (CIMITERO)
21513,IVREA (C.SO M. D'AZEGLIO/P.ZA FREGUGLIA)
21528,CASCINETTE (RIO GORRERE)
21531,CASCINETTE (LAGO DI CAMPAGNA)
21534,CHIAVERANO (CIMITERO)
21537,CHIAVERANO (LOC. MULINAS)
21540,CHIAVERANO (C.SO CENTRALE)
21559,ROMANO (REG. POARELLO)
21562,IVREA (V. TORINO/CANTON BEVOLO)
21565,SAN BERNARDO (V. TORINO/CANTON ARBORE)
21568,IVREA (V. TORINO/CANTON MUSSANO)
21571,SAN BERNARDO (V. TORINO/CANTON GARDA)
21574,IVREA (V. TORINO/CANTON FERRERO)
21577,IVREA (V. TORINO/CANTON MARIDON)
21580,IVREA (C.SO VERCELLI 120)
21583,IVREA (C.SO VERCELLI/V. STRUSIGLIA)
21586,IVREA (V. CASALE 2)
21589,IVREA (V. CASALE/V. BIELLA)
21592,IVREA (V. CASALE/PONTE BREDA)
21595,IVREA (V. CIGLIANO/CASC. BAGNOD)
21598,IVREA (V. CIGLIANO/CASC. ROSSA)
21601,TORRE BALFREDO (P.LE CHIESA)
21604,TORRE BALFREDO (V. CIGLIANO/CANTON BUSCHETTO)
21607,ALBIANO (BV. TINA)
21610,ALBIANO (V. CIGLIANO/CASC. CAMADIO)
21613,ALBIANO (BORG. PRELLE)
21616,ALBIANO (P.ZA ASSONE)
21622,BELLAVISTA (V.LE PAPA GIOVANNI 88)
21625,BELLAVISTA (V.LE PAPA GIOVANNI 148)
21628,BELLAVISTA (V.LE KENNEDY 101)
21631,BELLAVISTA (V.LE KENNEDY 73)
21634,BELLAVISTA (V.LE KENNEDY 17)
21637,BELLAVISTA (V.LE KENNEDY/PAPA GIOVANNI)
21640,IVREA (BV. SAN GIOVANNI)
21643,IVREA (C.SO VERCELLI/V. CREA)
21646,IVREA (C.SO VERCELLI/V. PIEMONTE)
21649,IVREA (C.SO VERCELLI/V. PARATO)
21652,IVREA (C.SO VERCELLI/CASA CIRCONDARIALE)
21655,BUROLO-ZONA INDUSTRIALE (LOC. FORCHINO)
21658,BUROLO-ZONA INDUSTRIALE (CASCINE BRIDOLA)
21664,BOLLENGO (V. ROMA/V. NIGRA)
21688,BOLLENGO (CASCINA GAMBONE)
21690,BOLLENGO (CASCINA CARLINA)
21694,IVREA (Q. S.GIOVANNI-ASILO)
21706,PAVONE (BORG. QUILICO)
21708,PAVONE (V. CIRCONVALLAZIONE/V. NOSETTA)
21709,PAVONE (CIRCONVALLAZIONE/V. MARCONI)
21713,PAVONE (V.MARCONI)
21717,PAVONE (V. DIETRO CASTELLO)
21718,PAVONE (V. TRIPOLI/V. TRIESTE)
21721,PAVONE (V. TRIPOLI/V. ROMA)
21724,PAVONE (V. CIRCONVALLAZIONE 42)
21727,PAVONE (V. CIRCONVALLAZIONE/FARMACIA)
21730,PAVONE (V. CIRCONVALLAZIONE/DISTRIB. ERG)
21733,BANCHETTE (V. PAVONE 2/CASERMA CARABINIERI)
21739,IVREA (V. LAGO S.MICHELE/DON BURZIO)
21742,IVREA (V. LAGO S.MICHELE/V. FAVERO)
21745,CHIAVERANO (PRAFAGIOLO)
21750,CHIAVERANO (BACCIANA)
21751,CHIAVERANO (LAGO SIRIO)
21757,BORGOFRANCO (V. MANZONI/V. RUFFINI)
21760,BIO' (V. ANDRATE)
21763,BIO'
21766,BIO' (REG. PARATORE)
21769,BIO' (REG. TRUC CAGNIN)
21772,NOMAGLIO (REG. CORSANO)
21775,NOMAGLIO
21778,NOMAGLIO (V. ANDRATE 6)
21781,ANDRATE (REG. SERRAMONTE)
21784,ANDRATE (PARCO GIOCHI ROBINSON)
21820,PONT (STAZIONE)
21823,PONT (P.ZA CRAVERI)
21826,PONT (P.ZA EUROPA)
21829,PONT (V. FRASSINETTO/V. SANT'ANNA)
21832,PONT (S.MARIA)
21835,FAIALLO (TRUC BERTOT)
21838,FAIALLO (PIASERETTO)
21841,FAIALLO (FRAZ.CAMPETTI)
21843,FAIALLO (BORG. PANIER)
21844,FAIALLO (FRAZ.MARTINETTO)
21850,FAIALLO (FRAZ.MAIELLA)
21853,FAIALLO (FRAZ.BUSTA SEL)
21856,FRASSINETTO (FRAZ.CASA NUOVA)
21859,FRASSINETTO (FRAZ.CANTELLETTO)
21862,FRASSINETTO (FONTANA ROSSA)
21865,FRASSINETTO (PANISSERE)
21868,FRASSINETTO (CIMITERO)
21871,FRASSINETTO
21874,FRASSINETTO (BV. CHIAPPINETTO)
21877,FRASSINETTO (FRAZ. TETTI)
21880,FRASSINETTO (FRAZ. CERESER)
21883,FRASSINETTO (FRAZ. BALMA)
21886,FRASSINETTO (FRAZ. GALLI)
21892,PONT (BORG. VILLANOVA)
21895,PONT (BAUSANO INF.)
21898,PONT (BORG. BAUSANO)
21901,PONT (CONFIGLIE')
21904,PONT (STROBA)
21907,INGRIA (FRAILINO)
21910,INGRIA
21913,INGRIA (VIRETTO)
21916,INGRIA (VILLANOVA)
21919,RONCO (FRAZ. LILLA)
21920,RONCO (PONTE BOGGIERA)
21922,RONCO (FRAZ. FUCINA)
21925,RONCO (BV. FORZO)
21926,RONCO (CIMITERO)
21928,RONCO
21931,RONCO (RICOVERO)
21934,RONCO (CASERMA)
21937,VALPRATO (BV. SCANDOSIO)
21940,VALPRATO (PT)
21943,VALPRATO SOANA
21968,PONT (LOC. SARRO)
21974,PONT (BORG. LANTIGLIERA-BOETTI)
21977,SPARONE (BORG. TORRE)
21980,SPARONE (MUNICIPIO)
22043,CHIAVERANO (REG. MOLINETTO)
22046,BIENCA (V. PERONETTO/REG. MONTRESCO)
22049,BIENCA (CHIESA)
22061,CHIAVERANO (TORBIERA)
22067,CASCINE ROMANO
22070,ROMANO (CAMPO SPORTIVO)
22073,ROMANO
22076,ROMANO (BV. CIMITERO)
22093,PEROSA (BV. PRANZALITO)
22096,PEROSA (V. PAPA GIOV./V. ISONZO)
22099,PEROSA (V. SCARMAGNO/V. PERRONE)
22108,SCARMAGNO (CAMPO SPORTIVO)
22117,CHIESANUOVA
22120,CHIESANUOVA (CIMITERO)
22123,CHIESANUOVA (FRAZ. CROSIO)
22125,CHIESANUOVA (FRAZ. CROSIO INFERIORE)
22126,CHIESANUOVA (FRAZ. VILLANUOVA)
22129,CHIESANUOVA (BV. NAVA)
22132,PRIACCO (BV. CHIESANUOVA)
22138,PRIACCO (P.ZA XXV APRILE)
22140,PRIACCO (CIMITERO)
22141,PRIACCO (REG. GAUDANO)
22144,CUORGNE' (PEDAGGIO)
22147,CUORGNE' (CENTRO)
22150,CUORGNE' (STAZIONE)
22162,SALTO (V. ROSSELLI)
22165,SALTO (V. BUOZZI/LOC. BIANCETTA)
22171,CASTELNUOVO NIGRA (REG. PONTIGLIA)
22173,CASTELNUOVO NIGRA (REG. CANTELLO)
22174,CASTELNUOVO NIGRA (BV. VILLA)
22176,RUEGLIO (PONTE)
22177,CINTANO (LOC. BRICHETTO)
22180,CINTANO (P.ZA DON SPAGNA)
22183,CINTANO (V. CHIUMINATTO)
22186,CINTANO (LOC. CUDIBIA)
22187,CINTANO (LOC. BURIA)
22188,CINTANO (BV. SANTUARIO DI PIOVA)
22189,COLLERETTO CASTELNUOVO
22192,COLLERETTO CASTELNUOVO (TORRE)
22195,BORGIALLO (CIMITERO)
22198,BORGIALLO (V. COLLERETTO 37)
22201,BORGIALLO (P.ZA 16.3.1948)
22204,BORGIALLO (LOC. SAN CARLO)
22207,BORGIALLO (LOC BELVEDERE)
22210,CHIESANUOVA (V. CUORGNÈ 2)
22263,LEINI (V.LE EUROPA/V. VOLPIANO)
22266,LEINI (ROVEGLIA)
22269,LEINI (CARTIERA)
22272,LEINI (BV. TEDESCHI)
22275,LOMBARDORE (MOBILIFICIO)
22278,LOMBARDORE (CASCINA DEL PESO)
22281,LOMBARDORE (POLIGONO/CAMPO)
22284,LOMBARDORE (BIVIO)
22293,BOSCONERO (SS460/BV. BOSCONERO)
22296,FELETTO (MASTRI)
22302,FELETTO (EX GUGLIELMETTI)
22305,FELETTO (P.ZA MARTIRI FELETTESI)
22308,FELETTO (V. FONTANA 60)
22314,RIVAROLO (GARAGE SADA)
22317,RIVAROLO (BV. EATON LIVIA)
22323,RIVAROLO (SALP)
22328,RIVAROLO (C.SO INDIPENDENZA 157)
22329,RIVAROLO (STAZIONE)
22332,RIVAROLO (CENTRO)
22338,RIVAROLO (ETI)
22341,RIVAROLO (C.SO  INDIPENDENZA/V. F.CERRANO)
22344,RIVAROLO (VESIGNANO)
22353,SALASSA
22356,SALASSA (OFFICINE DEGRA)
22359,VALPERGA (REG. VALLERO)
22360,VALPERGA (IST. CIAC)
22362,VALPERGA (STAZIONE)
22368,VALPERGA (CHIESA)
22371,VALPERGA (V. CUORGNE'/STR. DEI CHIOSI)
22372,VALPERGA (V. CUORGNE' 21)
22374,CUORGNE' (V. BRIG. PARTIGIANE 41)
22377,CUORGNE' (V. BRIG. PARTIGIANE 16)
22383,SALTO (V. VALLI DELL'ORCO/V. RUFFATTO)
22384,PONT (V. ROMA 56)
22389,PONT (V. ROMA/V. BERTOLDI)
22392,SALTO (P.ZA I MAGGIO)
22398,SPINETO (PIOVA-MULINO)
22401,SPINETO (V. CUORGNE' 133)
22404,SPINETO (CENTRO)
22407,SPINETO (RUFFINATTI)
22413,CASTELLAMONTE (VI.MU)
22415,CASTELLAMONTE (V. CANEVA)
22419,CASTELLAMONTE (S.GRATO/BOTTA)
22425,CASTELLAMONTE (BV. PREPARETTO)
22431,CASTELLAMONTE (CASCINA LA SPINA)
22437,BALDISSERO (BETTOLINO)
22440,BALDISSERO (BV. TORRE)
22443,BALDISSERO (FRAZ. PRAMONICO)
22446,STRAMBINELLO (BV. P.TE PETRI-CASA BIAVA)
22449,STRAMBINELLO (BV. P.TE PETRI)
22450,STRAMBINELLO (BARACCONE)
22452,QUAGLIUZZO (S.P. 14-N. 222)
22455,QUAGLIUZZO (MUNICIPIO)
22458,PARELLA (P.ZA BARATTIA)
22461,COLLERETTO GIACOSA
22463,"COLLERETTO GIACOSA (SP63 KM 3,100)"
22464,LORANZE' CAMPANA (V. PASQUERE)
22467,SAMONE (PONTE RIBES)
22473,RIVAROLO (CASE FANFANI)
22476,FAVRIA (P.L.-ENEL)
22479,FAVRIA (COLLEGIO BERTANO)
22482,FAVRIA (V. S.PIETRO/P.ZA MARTIRI LIBERTA')
22485,FAVRIA (STAZIONE)
22488,OGLIANICO (P.ZA STATUTO)
22491,OGLIANICO (CAMPO SPORTIVO)
22497,LOMBARDORE (CASCINA BOSSOLE)
22503,SAN BENIGNO (PORTAEREI DEL MOBILE)
22527,VOLPIANO (S.MICHELE)
22530,SAN BENIGNO (STAZIONE)
22533,SAN BENIGNO (BV. CIRCONVALLAZIONE 31)
22536,SAN BENIGNO (V. CHIVASSO)
22539,SAN BENIGNO (ALPINA)
22542,SAN BENIGNO (V. RIVAROLO/V. CAROBIA)
22545,BOSCONERO (BV. CIRCONVALLAZIONE)
22548,BOSCONERO (V. NIGRA/V. ALIGHIERI)
22551,BOSCONERO
22552,ALBA (STAZIONE FERROVIARIA)
22560,ALBA (RONDÒ)
22563,ALBA (DANIELS)
22566,ALBA (MUSSOTTO-STAZIONE)
22569,MUSSOTTO (BV. GUARENE)
22571,MUSSOTTO (P.ZA DELLA CHIESA)
22572,ALBA (MUSSOTTO-PONTE NERO)
22575,BORBORE (SIONERI)
22578,BORBORE (MOMBELLI)
22581,BORBORE (VALMAGGIORE)
22584,BORBORE (BV. SOCCO)
22587,BORBORE (V. TORINO)
22590,BORBORE (CARTIERA)
22593,CANALE (V. RUBIAGNO)
22596,CANALE (DISTRIBUTORE ESSO)
22599,CANALE (P.ZA MARTIRI)
22602,CANALE (P.ZA MARCONI)
22605,CANALE (SAN ROCCO)
22608,MONTA' (PONTE MURINALDO)
22611,MONTA' (P.ZA VITTORIO VENETO)
22614,MONTA' (S.LUCIA)
22617,MONTA' (BV. S.VITO)
22620,MONTA' (CASTELLERO)
22623,BUSANO (V. VALPERGA 23)
22626,PRALORMO (LAGO SPINA)
22629,PRALORMO (CAMICERIA)
22632,PRALORMO (P.ZA RISORGIMENTO)
22659,SAN GIORGIO (SS457-CASCINOTTI)
22662,MONTEU ROERO (BV. BRICCO-FERRERI)
22663,MONTEU ROERO (Z.I. RIVETTO)
22665,MONTEU ROERO (BV. RIVETTI)
22668,MONTEU ROERO (CANTON SANDRI)
22671,MONTEU ROERO (TRE RIVI)
22677,MONTEU ROERO (BV. CONELIANO)
22680,MONTEU ROERO (BV. S.STEFANO)
22683,MONTEU ROERO (V. UMBERTO I/V. FONDO VILLA)
22686,MONTEU ROERO (P.ZA MUNICIPIO)
22688,MONTEU ROERO (CIMITERO)
22689,CARAMAGNA (CAMPO SPORTIVO)
22692,MONTEU ROERO (BV. MONTALDO)
22695,MONTEU ROERO (BV. SAN GRATO)
22698,MONTEU ROERO (BV. SAN LUIGI)
22701,MONTEU ROERO (BV. SAN BERNARDO)
22704,MONTEU ROERO (BV. BALDISSERO)
22707,MADONNA DEL PILONE
22708,SOMMARIVA BOSCO (V. CANALE/V. MARCELLINO)
22709,SOMMARIVA BOSCO (V. SALUZZO 33)
22710,SOMMARIVA BOSCO (V. TORINO)
22713,CARAMAGNA (P.ZA UMBERTO I)
22716,CARAMAGNA (V. SAN SEBASTIANO/V. MAZZINI)
22719,CARAMAGNA (STR. CARMAGNOLA)
22725,ALBA (C.SO EUROPA/V. STOPPA)
22728,ALBA (C.SO EUROPA-LICEO SCIENTIFICO)
22731,ALBA (C.SO EUROPA/V. ALDO MORO)
22734,ALBA (C.SO EUROPA/V. SAN PIO V)
22737,ALBA (C.SO EUROPA/V. SCAGLIONE)
22740,ALBA (C.SO EUROPA/V. VIBERTI)
22743,ALBA (PRESTEL)
22746,GALLO (CANTINA RODDI)
22749,GALLO (SEBASTE)
22750,GALLO (BV. BORZONE)
22752,GALLO (FRAZ. CIOCCHINI)
22755,GALLO (V. GARIBALDI)
22758,GALLO (STAB. MONDO RUBERT)
22761,GALLO (CARROZZERIA MASCARELLO)
22764,SERRALUNGA (BIVIO)
22767,CASTIGLIONE (BIVIO)
22770,BATASIOLO (BV. PLUCOTTI-MANZONI)
22773,GARBELLETTO (BV. ANNUNZIATA)
22775,LA MORRA (BORG. ANNUNZIATA)
22776,BAROLO (PONTE ROCCA)
22779,BAROLO (BUSSIA-SCIULIN)
22782,BAROLO (V. VALLE VIGNANE)
22788,BAROLO (P.ZA CABUTTO)
22791,BAROLO (CIRCONVALLAZIONE)
22794,NOVELLO (BV. CIOCCHINI-MASCARELLI)
22800,NOVELLO (BV. TARDITI-CORINI)
22803,NOVELLO (CASCINA MASCARELLO)
22806,NARZOLE (BIVIO)
22809,MONCHIERO (FRAZ. FORNACI)
22812,MONCHIERO (P.ZA ABBONA)
22815,OZEGNA (BV. SEGHERIA)
22818,OZEGNA
22821,CASTELLAMONTE (SANT'ANTONIO)
22824,CASTELLAMONTE (DISTR. AGIP)
22827,CASTELLAMONTE (V. ROMANA)
22833,VALLE TALLORIA (BV. CARZELLO)
22836,VALLE TALLORIA (CAPPELLA)
22839,VALLE TALLORIA (POSTA)
22842,VALLE TALLORIA (CROCE)
22845,VALLE TALLORIA (BORGO NUOVO)
22848,VALLE TALLORIA (CANALASSO)
22851,SINIO (BOSCHETTO)
22854,SINIO (SANT'ANTONIO)
22857,SINIO (CASCINA FONTANA)
22860,SINIO (CAVALLO)
22863,SINIO (BORGO NUOVO)
22866,SINIO (PILONE CENEROTTO)
22872,GALLO (BORZONE)
22875,GALLO (BV. VAL DI SERRA)
22878,GALLO (GIACCO)
22881,GALLO (FARINETTI)
22884,GALLO (GRINZANE)
22885,CASTIGLIONE (COGNO)
22887,CASTIGLIONE (LORENZOTTO)
22890,CASTIGLIONE (MONTANELLO)
22893,CASTIGLIONE FALLETTO (V. ROMA)
22896,CASTIGLIONE (V. MONFORTE 1)
22899,CASTIGLIONE (CASE BORGOGNO)
22902,BUSSIA (BORGATA)
22905,MONFORTE (PIAN POLVERE)
22908,MONFORTE (CASCINA FANTINI)
22911,MONFORTE (FONTE SANT'ELIGIO)
22914,MONFORTE (COND. MONTEROSA)
22917,MONFORTE (P.ZA RE UMBERTO)
22920,MONFORTE (SETTE VIE-CORNARETTI)
22923,MONFORTE (CANTINA ROCHE)
22926,MONFORTE (CASA BRUCIATA)
22929,MONFORTE (MANZONI-SOTTANI)
22932,MONCHIERO (FRAZ. CUCCHI)
22935,MONCHIERO (MAESTRA)
22938,SERRALUNGA (FONTANA FREDDA)
22941,SERRALUNGA (BV. PERNO)
22944,SERRALUNGA (FRAZ. SORANO)
22947,SERRALUNGA (BAUDANA)
22950,SERRALUNGA (CASCINA PARAFADA)
22953,SERRALUNGA (BV. CERRATI)
22956,SERRALUNGA (P.ZA CASTELLO)
22959,SERRALUNGA (FRAZ. ONORATI)
22962,SERRALUNGA (BV. SINIO)
22965,SERRALUNGA (CASCINA BAGARINA)
22968,SERRALUNGA (CASCINA ARIONA)
22971,SERRALUNGA (MADONNA DELLA NEVE)
22974,RODDINO (BV. CENTRO)
22977,RODDINO (POZZETTI)
22980,RODDINO (PLUCIO)
22983,RODDINO (CHIESA SANT'ANNA)
22986,MONFORTE (BV. RODDOLI)
22989,MONFORTE (FORNACE)
22992,VOLPIANO (BV. CEBROSA)
22995,VOLPIANO (PISCINA-V. TRENTO)
22998,VOLPIANO (V. TORINO 32)
23001,VOLPIANO (V. TORINO 81-LAGO AZZURRO)
23004,VOLPIANO (V. TORINO 149)
23007,SETTIMO (V. TORINO/V. DE NICOLA)
23010,SETTIMO (V. TORINO-LUCCHINI)
23013,SETTIMO (MOTORIZZAZIONE)
23046,SAN BENIGNO (V. IVREA 25)
23052,FOGLIZZO (OFF. VECCHIA)
23055,FOGLIZZO (V. ROMA)
23060,FOGLIZZO (V. VITTORIO EMANUELE 8)
23061,FOGLIZZO (V. CALUSO/V. CAVOUR)
23063,SAN GIUSTO (MOTTURA)
23066,SAN GIUSTO (V. XXV LUGLIO/V. NIGRA)
23069,SAN GIUSTO (PESO)
23072,RIVAROLO (C.SO ITALIA)
23075,RIVAROLO (CASCINA LEA)
23078,SAN GIUSTO (CAPPELLA)
23081,SAN GIUSTO (BV. LUSIGLIÈ)
23087,SAN GIORGIO (V. MARCONI)
23090,SAN GIORGIO C.SE
23093,SAN GIORGIO (BV. CUCEGLIO)
23094,SAN GIORGIO (BV. CUCEGLIO 2)
23096,SAN GIORGIO (V. MONTALTO-KM 2)
23102,MONTALENGHE (V. MEINARDI)
23108,VILLATE (VILLATE-V. FASSOLA)
23111,VILLATE
23114,BESSOLO
23120,OZEGNA (PALAZZETTO DELLO SPORT)
23126,AGLIE' (CASCINA MALESINA)
23132,AGLIE' (COND. OLIVETTI)
23135,AGLIE'
23138,AGLIE' (CAMPO SPORTIVO)
23141,AGLIE' (ILTAR)
23144,AGLIE' (BV. SANTA MARIA)
23147,BAIRO (CIRCONVALLAZIONE)
23150,TORRE (BV. BAIRO)
23153,TORRE (PESO)
23156,BALDISSERO (CIMITERO)
23159,SCARMAGNO (MASERO)
23162,SCARMAGNO (SP82-STABILIMENTO)
23171,BRUSASCO (P.ZA RITANA)
23209,ALPIGNANO (P.ZA ROBOTTI)
23218,ALPIGNANO (V. CASELETTE-STAB. PHILIPS)
23221,CASELETTE (C.SO SUSA/V. GALILEI)
23224,CASELETTE (V. ALPIGNANO/C.SO SUSA)
23227,CASELETTE (COMUNE)
23230,CASELETTE (V. ALMESE/C.SO SUSA)
23233,CASELETTE (C.SO SUSA 231)
23236,CASELETTE (C.SO SUSA 242)
23237,CASELETTE (BV. REG. GRANGIOTTO)
23239,CASELETTE (C.SO SUSA 330)
23242,CASELETTE (SP 198/C.SO SUSA)
23245,MILANERE (V. ALMESE 60)
23248,MILANERE (V. ALMESE 65)
23251,MILANERE (V. ALMESE 31)
23254,DRUBIAGLIO (BIVIO)
23257,RIVERA (CAEM)
23260,RIVERA (P.ZA COMBA)
23263,ALMESE (V. RIVERA 41)
23266,ALMESE (V. CADUTI)
23269,ALMESE (P.ZA MARTIRI)
23272,VILLARDORA (BV. RUBIANA)
23275,VILLARDORA (PIZZERIA)
23278,VILLARDORA (V. S.AMBROGIO/V. BARATTA)
23281,VILLARDORA (V. S.AMBROGIO 63)
23284,VILLARDORA (V. S.AMBROGIO/V. CANAVERE)
23287,VILLARDORA (TORRE DEL COLLE)
23290,NOVARETTO (V. DE GASPERI 99)
23293,CAPRIE (V. DE GASPERI/V. CELLE)
23296,NOVARETTO (CHIESA)
23299,CAPRIE (V.LE KENNEDY/V. SAN MICHELE)
23302,CAPRIE (COMUNE)
23305,CAPRIE (V. ROMA)
23308,CAPRIE (V. ROMA-CASTELLO)
23311,CONDOVE (V. TORINO 58)
23329,RIVOLI (CORSO SUSA / CORSO DE GASPERI)
23332,RIVOLI (CENTRO COMMERCIALE)
23335,RIVOLI (FRAZ. PEROSA)
23338,ROSTA (SIRENA)
23341,ROSTA (CORSO MONCENISIO / STRADA AMBARURA)
23344,ROSTA (CORSO MONCENISIO / STRADA DELLA RISERA)
23350,FERRIERA (CORSO TORINO - DISTRIBUTORE)
23353,FERRIERA (C.SO SUSA 5/V. GATTA)
23356,FERRIERA (TEKSID)
23357,AVIGLIANA (V. FALCONE-CASA CANTONIERA)
23359,AVIGLIANA (CORSO TORINO - DISTRIBUTORE)
23362,AVIGLIANA (CORSO DORA - STAZIONE)
23365,AVIGLIANA (GRANGIA)
23374,ALMESE ( MALATRAIT I )
23377,ALMESE ( MALATRAIT II )
23380,ALMESE (V. COPERTILI)
23383,ALMESE (FRAZ. SOFFIETTI)
23386,RUBIANA (FRAZ. TETTI)
23389,RUBIANA (VIA ROMA - DEPOSITO GTT)
23425,NIQUIDETTO
23428,BERTESSENO (BIVIO)
23434,ALPIGNANO (V. SUSA-DISTRIBUTORE)
23488,LORANZE' CAMPANA (DISTRIBUTORE)
23529,ORBASSANO (NUOVA ROTONDA)
23550,RIVALTA (FRAZ. GERBOLE-CAUDANO)
23553,RIVALTA (FRAZ. PRABERNASCA-V. PIOSSASCO)
23556,RIVALTA (FRAZ. PRABERNASCA-V. SANGANO)
23559,BRUINO (V. ORBASSANO/V. MARCONI)
23562,BRUINO (ALBA SERENA)
23571,BRUINO (V. TORINO/V. CORDERO)
23574,BRUINO (V. SUSA-PINEROLO 70)
23577,SANGANO (VILLA AUGUSTA)
23580,SANGANO (V. BERT)
23583,SANGANO (VILLAGGIO LA LUCCIOLA)
23586,TRANA (BORG. MORANDA)
23589,TRANA (BORG. GALLETTO)
23592,TRANA (CAVE)
23595,TRANA (V. XX SETTEMBRE)
23598,TRANA (BV. REANO)
23600,TRANA (SANTUARIO)
23603,TRANA (S.BERNARDINO-BORG. UDRITTO)
23606,TRANA (S.BERNARDINO-V. RIVOLI)
23607,TRANA (S.BERNARDINO-GIARDINI REA)
23609,TRANA (S.BERNARDINO-CASERMA)
23612,TRANA (S.BERNARDINO-BORG. USSEGLIO)
23615,GIAVENO (DOGALI)
23618,GIAVENO (BORG. POGOLOTTI)
23621,GIAVENO (LAC DOR)
23624,GIAVENO (P.LE OPERATORI DI PACE)
23625,ORBASSANO (SANT' ANNA)
23627,GIAVENO (V.LE REGINA ELENA)
23633,BRUINO (V. VOLVERA)
23672,ORBASSANO (V. PARINI)
23687,RIVALTA (TETTI FRANCESI-ALLEMANDI)
23690,PIOSSASCO (CASCINA GAROLA)
23693,PIOSSASCO (FORNACI BALLA)
23696,PIOSSASCO (BAR GINO)
23699,PIOSSASCO (V. SUSA/V. CAVOUR)
23702,PIOSSASCO (PORTICI)
23705,PIOSSASCO (PESO)
23708,PIOSSASCO (MARCHILE)
23711,PIOSSASCO (MILONE)
23714,PIOSSASCO (V. CAPPELLA)
23717,PIOSSASCO (BV. COMBE)
23723,CUMIANA (CASCINASSA)
23726,CUMIANA (LO SCUDIERO)
23729,CUMIANA (LUISETTI)
23732,CUMIANA (BIVIO)
23735,CUMIANA (FRAZ. NEVE)
23738,CUMIANA (ELASTOR)
23741,CUMIANA (FRAZ. PIEVE)
23744,CUMIANA (VILLAGGIO SANT' ANNA)
23750,CUMIANA (V. PROVINCIALE 1)
23757,CUMIANA (STR. SAN MARTINO)
23760,CUMIANA (TAVERNETTE)
23763,CUMIANA (SAN GIACOMO)
23766,FROSSASCO (STR. DEL VALLONE)
23769,FROSSASCO (STR. DELLE MOIE)
23772,FROSSASCO (BIVIO)
23775,FROSSASCO (TROMBOTTO)
23778,ROLETTO (BV. ROLETTO)
23784,PINEROLO (V. GALILEI)
23793,PINEROLO (MACUMBA)
23796,PINEROLO (SAN LAZZARO)
23799,PINEROLO (BV. CARMAGNOLA)
23802,PINEROLO (C.SO TORINO/P.ZZA ROMA)
23805,PINEROLO (P.ZA CAVOUR)-CAPOLINEA
23808,FROSSASCO (V. DEL BOSCHETTO)
23811,FROSSASCO (V. BV. 5)
23814,FROSSASCO (P.ZA ROMA)
23817,FROSSASCO (BV. ROLETTO)
23820,FROSSASCO (CARABINIERI)
23877,RIVOLI (STR. S.MARIA)
23880,CORBIGLIA (STR. PIAI)
23883,CORBIGLIA (STR. CASC.TAVOLARA)
23886,CORBIGLIA
23887,VILLARBASSE (FRAZ.CORBIGLIA-STR. DELLA BASSA)
23889,CORBIGLIA (V. TOLAI)
23892,VILLARBASSE (V. CROCE SANT'AMATO)
23895,VILLARBASSE (V. PREILES)
23898,VILLARBASSE (SCUOLE)
23904,VILLARBASSE (V. BRAIDA)
23907,VILLARBASSE (BV. SANGANO)
23910,VILLARBASSE (REG. AVENAT)
23913,REANO (V. VILLARBASSE)
23916,REANO (V. DELLA NOMBARDA)
23919,REANO (V. ROMA 24)
23943,ROSTA (V. UGIE)
23946,ROSTA (V. SABBIONERA)
23949,ROSTA (V. MARCONI)
23952,ROSTA (P.ZA IV NOVEMBRE)
23955,ROSTA (P.ZA CADUTI DI NASSIRYA)
23957,AVIGLIANA (V. B.CROCE 4)
23958,ROSTA (V. MARGROT)
23959,AVIGLIANA (P.ZA DEL POPOLO)
23961,BUTTIGLIERA (V. RAGAZZI DEL 99-MADONNA DEI BOSCHI)
23964,BUTTIGLIERA (C.SO SUPERGA/STR. DEGLI ABAY)
23967,BUTTIGLIERA (C.SO SUPERGA-BANCA)
23968,BUTTIGLIERA (C.SO SUPERGA 7)
23982,BUTTIGLIERA (BORG.NICOLA)
24015,RIVOLI (V. RIVALTA 110)
24016,RIVOLI (V. RIVALTA 89)
24018,RIVALTA (STAB. RESCOM)
24021,RIVALTA (V. GORIZIA/V. TRENTO)
24023,RIVAROSSA (FRAZ. GRANGETTO)
24024,RIVALTA (V. GRIVA/V. EINAUDI )
24026,FRONT (GRANGE)
24033,RIVALTA (V. MORIONDO/V. LA MALFA)
24048,ORBASSANO (SCUOLE)
24120,CASTELLAMONTE (CASCINA GINESTRA)
24186,PIOSSASCO (VILLAGGIO LA QUERCIA)
24189,PIOSSASCO (V. SUSA 56)
24192,LOMBARDORE (MULINO)
24195,RIVAROSSA (V. S.FRANCESCO)
24198,RIVAROSSA
24201,RIVAROSSA (DEPOSITO)
24205,BUSANO (BV. CIMITERO)
24209,FRONT (GRANGE-BIVIO)
24212,FRONT (SP.39)
24215,FRONT (BV. GRANGE)
24218,FRONT (SCUOLE)
24221,FRONT (CARTIERA)
24224,FRONT (BAR PAULA)
24230,FRONT (FRAZ. RIVERA)
24233,BUSANO (STAB. FILS ESSECI)
24236,BUSANO (CASCINA GRANGIASSA)
24239,BUSANO (V. IGONETTI)
24245,RIVARA (FRAZ. RESSIA)
24248,RIVARA (FRAZ. S.BERNARDINO)
24251,RIVARA (P.ZA BARBACANIA)
24254,RIVARA (OFF. ROSTAGNO)
24257,FORNO (FRAZ. MUSSOTTI)
24260,FORNO (FRAZ. CROSI)
24263,FORNO (COOPERATIVA)
24266,FORNO (FRAZ. MARIETTI)
24314,SAN FRANCESCO AL CAMPO (FRAZ. S.ANNA)
24317,SAN FRANCESCO AL CAMPO (V. TORINO)
24320,SAN FRANCESCO AL CAMPO (L'ASSUNTA)
24323,SAN FRANCESCO AL CAMPO (FRAZ. CENTRO)
24326,PALAZZO GROSSO (V. TORINO/V. 25 APRILE)
24332,FRONT (BV. VAUDA)
24335,BARBANIA (BV. GIANOTTI)
24338,BARBANIA (CARABINIERI)
24341,FORNO (MAGLIO)
24374,BORGARO (V. LANZO 31)
24377,BORGARO (V. LANZO 102)
24380,BORGARO (V. LANZO/V.LE MARTIRI)
24392,CASELLE (STR. AEROPORTO 36)
24395,SAN MAURIZIO (OSPEDALE F. FRATELLI)
24398,SAN MAURIZIO
24407,SAN MAURIZIO (V. DE AMICIS 1)
24410,SAN FRANCESCO AL CAMPO (FRAZ. GAMBERI)
24431,MALANGHERO
24434,MALANGHERO (BV. S.MAURIZIO)
24437,SAN FRANCESCO AL CAMPO (SEDIME)
24440,CIRIE' (V. ROMA/P.ZZA LORETO)
24443,CIRIE' (P.ZA CASTELLO)
24447,CIRIE' (STAZIONE)
24453,GERMAGNANO (STAZIONE FERROVIARIA)
24459,GERMAGNANO (PIAN BAUSANO)
24462,GERMAGNANO (BV. CASTAGNOLE)
24465,VIU' (BORGO)
24466,VIU' (BV. TOGLIE)
24467,VIU' (LOC. MALPASSO)
24468,VIU' (FUBINA)
24469,VIU' (LOC. FURNA')
24470,VIU' (LOC. PORTE)
24471,VIU' (MONDREZZA)
24472,VIU' (BV. OLDRI)
24473,VIU' (P.ZA VITTORIO VENETO)
24474,VIU' (P.ZA 24 MAGGIO)
24475,VIU' (VERSINO)
24476,VIU' (SP32 KM 13)
24477,VIU' (FUCINE-BV. COL DEL LYS)
24480,VIU' (LOC. GUICCIARDERA)
24483,VIU' (LOC. TRICHERA)
24484,VIU' (SP32 KM 17)
24485,"LEMIE (SP32 KM 18,5)"
24486,LEMIE (FORNO)
24489,LEMIE (VILLA)
24492,LEMIE
24495,LEMIE (CHIANDUSSEGLIO)
24496,LEMIE (LOC. CHIAMPIETTO)
24498,LEMIE (SALETTA)
24501,USSEGLIO (PIAZZETTE)
24504,USSEGLIO (PIANETTO)
24507,USSEGLIO (CHIABERTO)
24510,USSEGLIO (CENTRO)
24513,USSEGLIO (VILLARETTO)
24516,USSEGLIO (CAPOLINEA)
24534,VIU' (LOC. MOLAR)
24537,COL SAN GIOVANNI (BV. RICHIAGLIO)
24540,COL SAN GIOVANNI
24555,CASELLE (CIRC. VECCHIA/SUOR VINCENZA)
24558,CASELLE (STR. CIRIÈ 46)
24561,CASELLE (CIRIÈ/BALLARINI)
24564,CASELLE (STR. CIRIÈ 199)
24567,SAN MAURIZIO (FRAZ. CERETTA)
24570,SAN MAURIZIO (CERETTA/V. TORINO 67)
24573,CIRIE' (LOC. BARELLA)
24576,CIRIE' (STR. TORINO 112)
24582,CIRIE' (TORINO/REMONDI-IST.GRASSI)
24585,CIRIE' (V. TORINO/DISTR. AGIP)
24588,BARBANIA (V. DI COLLE)
24615,CIRIE' (OSPEDALE)
24618,CAVAGNOLO (CINEMA)
24621,CAVAGNOLO (FRAZ. FRANZE)
24623,CARAMAGNA (FUCINA)
24626,CAVAGNOLO (BV. MARCORENGO)
24627,BROZOLO (STAZIONE FERROVIARIA)
24630,BROZOLO
24633,BROZOLO (PIRENTA)
24636,ROBELLA (BIVIO)
24639,ROBELLA (CAVALLO BIANCO)
24640,S. ANNA (CENTRO)
24642,ROBELLA (BV. MONTIGLIO)
24645,MURISENGO (LOC. GALLO)
24648,MURISENGO
24651,MURISENGO (LOC. RIVO)
24654,MURISENGO (S.CANDIDO)
24657,MURISENGO (S.CANDIDO-FORNACE)
24660,MURISENGO (BV. VILLADEATI)
24663,ODALENGO GRANDE (POZZO)
24666,ODALENGO GRANDE (BV. S.ANTONIO)
24669,ODALENGO GRANDE (BIVIO)
24672,VALLE CERRINA (BV. MONTALERO)
24675,VALLE CERRINA (BV. PIANCERRETO)
24678,VALLE CERRINA (STAB. PETRINI)
24681,VALLE CERRINA
24684,VALLE CERRINA (PATELEC)
24687,VALLE CERRINA (PATELEC)
24690,MONTALDO (BIVIO)
24693,GAMINELLA (CASE SPARSE)
24696,GAMINELLA (BV. POZZENGO)
24699,GAMINELLA (BV. MOMBELLO)
24702,CASALINO (BIVIO)
24705,SERRALUNGA (BV. MORSINGO)
24708,MONCARATO (CASC. GAMBARELLO)
24711,SERRALUNGA (BV. MONCARATO)
24714,SERRALUNGA (BV. SOLONGHELLO)
24717,SERRALUNGA (BV. CASTAGNONE)
24720,SERRALUNGA (MADONNINA)
24723,SERRALUNGA (BV. CERESETO)
24726,SERRALUNGA (DUE PUNTE)
24729,OZZANO (BV. QUARTI)
24732,OZZANO
24735,SAN GIORGIO MONFERRATO
24738,SAN GIORGIO (STAB. VALMET)
24741,SAN GIORGIO (BV. S.GERMANO)
24744,CASALE (OSPEDALE)
24747,CASALE (C.SO VALENTINO 182)
24750,CASALE (C.SO VALENTINO 66)
24753,CASALE (TERMINAL)
24822,VILLADEATI (CENTRO)
24825,ZANCO (QUARTA)
24828,ZANCO (BV. FONTANINA)
24831,TRITTANGO
24834,ALFIANO NATTA (CARDONA)
24837,ALFIANO NATTA (BV. CASARELLO)
24840,ALFIANO NATTA (P.ZA VITT.EMANUELE III)
24843,TONCO (CASE PALETTI)
24846,TONCO
24849,TONCO (CASORZO)
24852,TONCO (FORNACE)
24855,FRINCO (BV. MOLINASSO)
24858,CASTELL'ALFERO (BV. CASALINO)
24867,CASTELL'ALFERO (STAZIONE FS)
24870,CASTELL'ALFERO
24873,CASTELL'ALFERO (CASOTTO)
24876,CASTELL'ALFERO (BV. SERRA PERNO)
24879,PORTACOMARO (CENTRO)
24882,PORTACOMARO (ISOFLUSS)
24885,VALGERA COPPI
24886,ASTI (C.SO CASALE-IPERMERCATO IL BORGO)
24887,ASTI (C.SO CASALE/V. DESIDERI)
24888,ASTI (C.SO CASALE /V. TOSI)
24891,ASTI (V. GENOVA 1)
24894,ASTI (C.SO FERRARIS/V. TORRICELLI)
24900,MURISENGO (BRICCO)
24903,MURISENGO (BV. ALBARENGO)
24906,COLCAVAGNO (BIVIO)
24909,SCANDELUZZA (LOC. CANTONE)
24912,SCANDELUZZA (MUNICIPIO)
24915,SCANDELUZZA (FINE PAESE)
24921,RINCO (BV. SP. 22)
24924,ZANCO (BV. SP. 22)
24927,FRINCO (COMUNE)
24930,FRINCO (SAN ROCCO)
24933,SAN DEFENDENTE (LOC. GERBETTO)
24936,SAN DEFENDENTE
24939,SAN DEFENDENTE (MULINO)
24942,CALLIANETTO (BV. CASTELL'ALFERO)
24945,CALLIANETTO (V. LASCA)
24948,CALLIANETTO (STR. ASTI 58)
24951,CALLIANETTO (PROLA)
24954,CALLIANETTO (GIROLA)
24957,CALLIANETTO (VALMAGGIORE)
24960,VALGERA COPPI (PIANO POLA)
24963,CALLIANETTO (LOVISONE)
24966,CALLIANETTO (LOVISONE)
24969,SAN CARLO (CASE SPARSE)
24972,SAN CARLO (CASE GIAIETTI)
24987,CICONIO (V. DON ODDONINO)
24990,CICONIO (BORG. DE LAURENTIS)
24993,BARBANIA (FRAZ. PIANA)
24998,LUSIGLIE' (BIVIO)
24999,SAN GIOVANNI
25002,BALDISSERO
25005,BALDISSERO (TORRE CIVES)
25008,VIDRACCO (BV. VESPIA)
25011,VIDRACCO
25014,ISSIGLIO (BIVIO)
25017,VISTRORIO (FARMACIA)
25020,VISTRORIO
25023,ALICE (GAUNA)
25026,RUEGLIO (BIVIO)
25029,ALICE (BIVIO)
25032,ALICE (REG. CANAPRE SUP.)
25035,ALICE (BV. BROSSO)
25038,MEUGLIANO (REG. FRERA)
25041,MEUGLIANO (REG. PREE)
25044,MEUGLIANO (BV. TRAUSELLA)
25047,MEUGLIANO (CHIESA)
25050,VICO (NOVAREGLIA)
25051,"VICO (SP66 KM 6,1)"
25053,VICO (P.ZA GARIBALDI)
25056,VICO (REG. CASSE')
25059,DRUSACCO (POSTA)
25062,DRUSACCO (REG.CAMPEL)
25065,DRUSACCO (REG.SPINASSE)
25068,DRUSACCO (REG.PUMAREI)
25071,TRAVERSELLA (COMBA D'ARA)
25074,TRAVERSELLA (BV. MINIERE)
25080,ISSIGLIO (V. LUNGORA)
25086,VISTRORIO (BIVIO)
25089,LUGNACCO (V. ROMA)
25092,LUGNACCO
25094,LUGNACCO (SP65)
25095,PECCO (CHIESA)
25098,PECCO
25101,PECCO (BV. CIRCONV.)
25110,ALICE
25113,ALICE (REG. MATTAREGLIO/CHIESA)
25116,ALICE (LAGO)
25119,ALICE (REG. TRUC DEL DUR)
25122,ALICE (REG. MUCCHIANDO)
25125,ALICE (REG. MOLINERA)
25128,LESSOLO (REG. MARSA)
25131,LESSOLO (V. ALICE 63)
25134,LESSOLO (V. ALICE 51)
25137,LESSOLO (V. ALICE 4)
25140,LESSOLO (V. VITTORIO VENETO)
25143,LESSOLO (LOC. RIO'-V. MARENDA)
25146,LESSOLO (FRAZ. MAGNUS 41)
25149,LESSOLO (FRAZ. MAGNUS)
25152,LESSOLO (CAMPO SPORTIVO)
25155,FIORANO (V. IVREA 11)
25158,FIORANO (CANTON CUSAIRON-V. IVREA 41)
25185,VICO (CIRCONV./SCUOLE)
25188,VICO (REG. CAMPER)
25191,BROSSO (REG.BATTAGLIA/CAMPO SPORTIVO)
25192,BROSSO (SP.66/V. SAPEL)
25197,SILVA
25200,SILVA (BIVIO)
25206,SAN MARTINO (BV. VIALFRE')
25209,SAN MARTINO
25223,LESSOLO (V. IV NOVEMBRE/CAPOLINEA)
25229,AZEGLIO (BV. PIANE)
25232,AZEGLIO (FRAZ. CASTELLAZZO)
25235,AZEGLIO (FRAZ. PIANE)
25238,AZEGLIO (FRAZ. PIANE 42)
25241,AZEGLIO (CALCINARA)
25244,AZEGLIO (CAVALCAVIA)
25247,SETTIMO ROTTARO (V. IV NOVEMBRE/V. DUCA D'AOSTA)
25250,SETTIMO ROTTARO (MUNICIPIO)
25254,CARAVINO (P.LE CARECCHIO)
25256,CARAVINO
25265,COSSANO (V. TORINO 94)
25268,COSSANO (V. PELLICO/V.TORINO)
25269,COSSANO (V. PERRONE)
25271,ALBIANO (BOLLENGO/POBBIA)
25274,AZEGLIO (FRAZ. POBBIA-P.ZA G. ANGELA)
25277,AZEGLIO (FRAZ. POBBIA)
25283,AZEGLIO (P.ZA M. D'AZEGLIO)
25340,VEROLENGO (VALENTINO)
25341,VEROLENGO (V. MOSA)
25364,CRESCENTINO (P.L.)
25367,CRESCENTINO (V. ODETTI/V. GIOTTO)
25388,ALFIANO NATTA (POSTA)
25460,SETTIMO (V. CEBROSA/STR. DELLA MERLA)
25474,LESSOLO (V. FRANZA/V. MIGLIORE)
25477,CALEA (V. MARIO FRANZA/MULINI DI CASALE)
25480,CALEA (P.ZA CHIESA)
25483,CALEA (V. FRANZA/V. SIBIA)
25486,CALEA (V. FRANZA/CIRCONVALLAZIONE)
25489,BAIO DORA (RIO ROSSO)
25492,BAIO DORA (V. NICOLETTA)
25495,BAIO DORA (SAN ROCCO)
25498,QUASSOLO (V. SAN ROCCO)
25501,QUASSOLO (V. SAN ROCCO/REG. CHIARO)
25543,MONTALENGHE (V. MONTEBELLO)
25546,ORIO (CIMITERO)
25549,ORIO (P.ZA TAPPARO)
25564,LORANZE' BASSO (V. BRUN)
25567,LORANZE' (V. FRANCESETTI)
25575,CUCEGLIO (CASCINA CUFFIA)
25593,TORINO (C.SO MARONCELLI)
25674,SANTENA (SAN SALVÀ)
25677,SANTENA (VALEO)
25680,POIRINO (MAROCCHI-SCAMBIO)
25683,POIRINO (MAROCCHI-CHIESA)
25686,POIRINO (BV. PESSIONE)
25692,POIRINO (MOBILIFICIO SANTI)
25695,POIRINO (V. INDIPENDENZA)
25698,POIRINO (ANNUNZIATA)
25701,POIRINO (CENTRAL DRINK)
25704,POIRINO (V. TERNAVASSO)
25707,POIRINO (VEMAIL)
25710,PRALORMO (REG. MARESCO)
25713,POIRINO (BECCHIO)
25716,POIRINO (GELATERIA)
25719,PRALORMO (SATIP PLASTIC)
25722,PRALORMO (SCARRONE)
25749,CANALE (VINDOLINI)
25764,BALANGERO (SEMAFORO STAZIONE)
25770,MATHI (SEMAFORO CIMITERO)
25776,GROSSO (SEMAFORO VILLANOVA)
25779,NOLE (SEMAFORO VAUDA)
25809,BUSANO (BV. SAN ANTONIO)
25810,BUSANO (POMATA)
25819,FORNO (V. EINAUDI)
25821,FORNO (CIMITERO)
25824,PRATIGLIONE (BV. STR. NUOVA CARELLA)
25827,PRATIGLIONE
25830,PRATIGLIONE (CHIAPPIGNOLO)
25833,PRASCORSANO (MORINA)
25839,PRASCORSANO (BV. BELMONTE)
25842,PRASCORSANO
25848,PRASCORSANO (PRABASONE)
25849,PRASCORSANO (PONT CANAVET)
25850,PRASCORSANO (BREDA)
25851,PRASCORSANO (LOC. S.MARTA)
25854,SAN COLOMBANO (LOC. BOASCA)
25855,SAN COLOMBANO (CRESTO)
25856,SAN COLOMBANO (CRESTO)
25857,SAN COLOMBANO (V. VILLA)
25863,CANISCHIO (BV. FOREST)
25866,CANISCHIO (CASE FERRERO)
25869,CANISCHIO (BORG.RIAPETTO)
25872,CANISCHIO (FRAZ.RUA)
25878,CUORGNE' (BV. RONCHI)
25881,BUSANO (V. CIRCONVALLAZIONE)
25883,BUSANO (PANIFICIO BIANCO)
25884,PERTUSIO (BV. S.PONSO)
25885,PERTUSIO (BOCCIOFILA)
25890,SAN PONSO (CENTRO)
25898,SPARONE (STAB. CERESA)
25899,SPARONE (ROSA BIANCA)
25902,SPARONE (FRAZ. APPARE')
25905,SPARONE (FRAZ. CALSAZIO)
25908,SPARONE (FRAZ. NOSE')
25911,LOCANA (FRAZ. BOSCO)
25914,LOCANA (FRAZ. PRAIE)
25917,LOCANA (FRAZ. BARDONETTO INF.)
25918,"LOCANA (SS460 KM 40,5)"
25920,LOCANA (FRAZ. BARDONETTO SUP.)
25923,LOCANA (FRAZ. BOSCHIETTO)
25926,LOCANA (V. TORINO 8)
25929,LOCANA (RONCAGLIE-BAR PRADI GOI)
25932,LOCANA (V. TORINO 29)
25935,LOCANA (BOTTEGOTTO)
25938,LOCANA (FRAZ. RONCORE)
25941,LOCANA (FRAZ. CUSSALMA)
25942,LOCANA (FRAZ. CASETTI CIV. 78)
25944,LOCANA (FRAZ. CASETTI)
25947,LOCANA (FRAZ. ROSONE)
25950,LOCANA (FRAZ. FORNOLOSA)
25953,LOCANA (FRAZ. FORNETTI)
25956,LOCANA (FRAZ. ZAUNERE)
25959,LOCANA (FRAZ. LILLA)
25962,NOASCA (FRAZ. PRALILLA)
25965,NOASCA (FRAZ. FRERA INF.)
25968,NOASCA (FRAZ. FRERA SUP.)
25971,NOASCA (FRAZ. FE')
25974,NOASCA (FRAZ. GRUSINER)
25975,"NOASCA (KM 59,200)"
25977,NOASCA (FRAZ. GERA EREDI)
25980,NOASCA (PONTE BORNO)
25983,NOASCA (FRAZ. LA MONIN)
25989,NOASCA
25992,NOASCA (SENTIERO NATURA)
25995,NOASCA (FRAZ. PIANCHETTE)
25998,CERESOLE (INGR. GALLERIA)
26001,CERESOLE (LOC. RIVA)
26004,CERESOLE (FRAZ. PRESE)
26007,CERESOLE (BORG. BRENGI)
26010,CERESOLE (AEM)
26013,CERESOLE (GIORNALAIO)
26016,CERESOLE (PIAN D. BALMA)
26019,CERESOLE REALE
26031,CANALE (CIMITERO)
26034,CANALE (BV. MOLINO-GALLETTO)
26040,VALPONE (CENTRO)
26043,VALPONE (BARBERO)
26046,VALPONE (BV. CAVALLERA)
26052,TORRAZZO (BV. PRIOCCA)
26058,SAN DAMIANO (CIMITERO)
26064,SAN DAMIANO (P.ZZA IV NOVEMBRE)
26067,SAN DAMIANO (V. CARTELLO)
26070,SAN DAMIANO (RONDO')
26073,SAN DAMIANO (RIFRANZONE)
26076,ASTI (TORRE BATIBO)
26079,ASTI (BV. CELLE ENOMONDO)
26082,ASTI (VAGLIERANO-STAZIONE)
26085,ASTI (REVIGNANO)
26091,ASTI (CENTRO ASL)
26094,ASTI (VALLE BENEDETTA)
26097,ASTI (PORTA TORINO)
26100,ASTI (P.ZA AMENDOLA-SACLA')
26103,GALLO (BV. GRINZANE)
26109,GALLO (CANTINA GIGI ROSSO)
26115,RODDINO (BV. MONFORTE)
26124,BAROLO (BV. VERGNE)
26139,ASTI (BRICCO FASSIO-PALUCCO)
26140,ASTI (SESSANT)
26141,ASTI (C.SO IVREA-ESSELUNGA)
26142,ASTI (TORRETTA-C.SO TORINO 200)
26154,SALASSA (V. STAZIONE)
26160,MADONNA DEI CAVALLI (CHIESA)
26188,MONTA' (STR. PROVINCIALE 38)
26189,MONTA' (V. MONTA'/V. MONTESSORI)
26193,CANALE (V. S.STEFANO ROERO)
26196,CANALE (CASA BRUNO)
26199,CANALE (CANOVA)
26202,S.STEFANO ROERO (VALLE DEI LUNGHI)
26205,S.STEFANO ROERO (BV. MAIOLI)
26208,S.STEFANO ROERO (VALDONE)
26211,S.STEFANO ROERO (REINA)
26214,S.STEFANO ROERO (BV. S.MICHELE)
26217,S.STEFANO ROERO (SAN GRATO)
26220,S.STEFANO ROERO (V. CAPOLUOGO)
26223,S.STEFANO ROERO (BV. MAD. GRAZIE)
26229,S.STEFANO ROERO (BV. VALUNGA)
26232,S.STEFANO ROERO (BV. VAREGLIO)
26235,S.STEFANO ROERO (BV. BORDONI)
26238,S.STEFANO ROERO (VALLE S.LORENZO)
26247,CANALE (MADONNA LORETO)
26250,CISTERNA (LAME)
26256,CISTERNA (DOSSO)
26259,CISTERNA (AL PIANO)
26262,CISTERNA (RISTORANTE GARIBALDI)
26265,CISTERNA (V. DUCA D'AOSTA)
26280,CASTELLINALDO (BV. S.CARLO)
26283,CANALE (FRAZ. VALPONE)
26286,CASTELLINALDO (PESO)
26289,CASTAGNITO (V. ROMA)
26291,CASTAGNITO (BV. BORBORE)
26292,CASTAGNITO (CASCINA CROERA)
26294,CASTAGNITO (BARACCONE)
26295,GUARENE (BV. MOMBELLI)
26296,GUARENE (VACCHERIA)
26298,GUARENE (POSTA)
26301,GUARENE (CASCINA COSCIA)
26304,CASTELROTTO (P.ZA DELLA POSTA)
26319,BORBORE (CASE DUZZUTO)
26322,VEZZA (BORGO NUOVO)
26325,VEZZA (CHIESA)
26326,S.STEFANO ROERO (BV. MOI)
26328,VEZZA (P.ZA S.BERNARDO)
26370,VEZZA (VAL RUBIAGNO)
26400,FORNO (VIGNE')
26407,CARIGNANO (P.ZA C. ALBERTO 38)
26436,VILLASTELLONE (AGES)
26439,VILLASTELLONE (LUBRIFICANTI)
26442,VILLASTELLONE (P.ZA DELLA LIBERTA')
26445,VILLASTELLONE (V. CARIGNANO 19)
26448,VILLASTELLONE (BV. CORNALESE)
26451,VILLASTELLONE (STARS)
26469,CARMAGNOLA (V. TORINO/V. VALPERGA)
26511,VALLE S.MATTEO (FRA)
26517,CISTERNA (BV. VALMELLANA)
26520,SAN DAMIANO (BV. RONCHESIO)
26523,SAN DAMIANO (BV. VAL SCAGLIANA)
26526,SAN DAMIANO (BV. GORZANO)
26532,SAN DAMIANO (LEBRETO)
26535,SAN DAMIANO (AL PIANO)
26538,SAN DAMIANO (SCUOLE MEDIE)
26544,SAN DAMIANO (STIZZA)
26553,PRANZALITO
26556,ROBELLA (V. VERDINA BASSA)
26562,MONCALIERI (V. MARTIRI/V. ROMA)
26583,STUPINIGI (CASTELLO)
26585,NICHELINO (P.ZZALE ALPI)
26610,MURISENGO (LOC. MONDRINO)
26631,CAVAGNOLO (V. MARTIRI LIBERTÀ 55)
26640,SCIOLZE (REG. PRISSOLO)
26643,CISTERNA (S.MATTEO-V. CANALE)
26646,CASTELLINALDO (BV. CANALE)
26649,MADONNA DEI CAVALLI (GATTI)
26652,SAN DAMIANO (FRAZ. S.GIULIO)
26673,SOMMARIVA BOSCO (STAZIONE FS)
26749,VOLPIANO (AUTOSTRADA)
26828,VEROLENGO (ROLANDINI)
26834,BORGO REVEL (BENNE)
26837,VEROLENGO (MADONNINA-MATTATOIO)
26840,VEROLENGO (MADONNINA-SANTUARIO)
26843,VEROLENGO (MADONNINA-V.LE)
26848,ALPETTE (BV. FRAZ. NERO)
26851,ALPETTE (CASA BERNASCA)
26854,ALPETTE (CASA DORO)
26857,CUORGNE' (FRAZ. VENA)
26860,CUORGNE' (FORMIERO)
26863,CUORGNE' (FRAZ. MOIA)
26866,CUORGNE' (FRAZ. FEIE)
26869,CUORGNE' (LAVATOIO)
26905,CASTELLAMONTE (SAN ROCCO)
26906,CASTELLAMONTE (SP59 KM. 3)
26908,CASTELLAMONTE (FILIA-RISTORANTE VALENTINO)
26909,CASTELLAMONTE (FILIA-CHIESETTA)
26911,CASTELLAMONTE (FILIA-LOC LOCANDA)
26913,CASTELLAMONTE (BV. FRAZ. S.ANNA)
26922,DOGLIANI (V. CAPPA 45)
26925,CIRIE' (S.MAURIZIO/GAZZERA)
26928,PERTUSIO (STAB. TRIONEURO)
26952,MONCHIERO (CIMITERO)
27015,BAROLO (V. BOSCHETTI)
27051,MONCHIERO (CAMPO SPORTIVO)
27060,CANALE (V. DEL PESCO-SCUOLE)
27066,RACCONIGI (STAZIONE FERROVIARIA)
27108,TORRAZZO (VALDOISA)
27111,CASTELROSSO (P.ZA DELL'ASSUNTA)
27129,PAVONE (CASCINA MOLLA)
27150,CISTERNA (S.MATTEO-CHIESA)
27164,MONTA' (BV. BASTIANETTI)
27213,VEROLENGO (P.ZZA IV NOVEMBRE)
27228,MONFORTE (SAN SEBASTIANO)
27231,MONFORTE (LOC. CAMIA)
27234,MONFORTE (LOC. CHIESE)
27236,IVREA (V. LAGO S.MICHELE/SAUDINO)
27240,IVREA (V. LAGO S.MICHELE/POLVERIERA)
27243,IVREA (V. TORINO/CANTON GABRIEL)
27246,IVREA (V. LAGO S.MICHELE/MONCRAVA)
27249,BIENCA (V. PERONETTO/CASALE CHIALA)
27252,BIENCA (V. PERONETTO/CASALE RICHEDA)
27255,SAN DAMIANO (RONDO')
27258,SAN DAMIANO (P.ZA ROSINA)
27261,SAN DAMIANO (BV. TIGLIOLE)
27267,BRUINO (V. SUSA/V. CUMIANA)
27312,RIVOLI (OSPEDALE)
27346,S.ANNA ROBELLA BIVIO
27349,MONTECHIARO (CONSORZIO)
27350,MONTECHIARO
27351,MONTECHIARO (STAZIONE)
27354,CHIUSANO (STAZIONE)
27357,SETTIME (STAZIONE)
27360,SERRAVALLE
27369,MONDOVI' (P.ZA MELLANO)
27372,MONDOVI' (P.ZZA REPUBBLICA)
27384,ALBA (C.SO EUROPA-SCUOLA RODARI)
27387,ALBA (C.SO EUROPA/V. SAN CASSIANO)
27390,NOVELLO (CANTINA SOCIALE)
27393,NOVELLO (BIVIO)
27414,CHIVASSO (TORASSI)
27417,CHIVASSO (COOP/CONC. CARAVAN)
27420,CHIVASSO (C.SO FERRARIS)-IST. UBERTINI
27423,CHIVASSO (C.SO FERRARIS/V. TOGLIATTI)
27426,CHIVASSO (OSPEDALE)
27429,RIVAROLO (PERARDI)
27435,SAN BENIGNO (V. PAPA GIOVANNI XXIII)
27441,CUORGNE' (PEDAGGIO-V. BIXIO)
27444,SAN SEBASTIANO (VILLAGGIO MONTEMISE')
27465,GASSINO (V. BUSSOLINO-CRAI)
27471,CASTAGNETO PO (BV. POGGIO)
27472,CASTAGNETO PO (MEZZAVILLA)
27473,CASTAGNETO PO (STR. MARCA)
27475,CHIVASSO (V. BLATTA)
27477,CHIVASSO (BV. MONTEGIOVE)
27478,CASTAGNETO PO (MUNICIPIO)
27479,CASTAGNETO PO (P.ZZA ROVERE)
27480,CASTAGNETO PO (BURDIN)
27481,CASTAGNETO PO (BUCHET)
27482,CASTAGNETO PO (CARETTI)
27483,CASTAGNETO PO (SAN GENESIO)
27484,CASTAGNETO PO (CERIANA)
27503,MONTANARO (V. MADONNA D'ISOLA/V. SALASSA)
27506,MONTANARO (P.ZA RIMEMBRANZA)
27509,MONTANARO (SP MONTALENGHE/V. BEVILACQUA)
27512,MONTANARO (V. TORINO/V. G.BRUNO)
27527,LEQUIO TANARO (FONDOVALLE PIZZERIA)
27530,FAVRIA (BORG. S.ANTONIO)
27533,GASSINO (V. BUSSOLINO 65)
27536,SCIOLZE (CASCINA FRESCHEA)
27539,SCIOLZE (P.ZA S.ROCCO)
27542,SCIOLZE (REG. CASALE)
27545,SCIOLZE (REG. SAN ROCCO)
27548,CINZANO (S.P.97 N.3)
27551,GASSINO (V. BUSSOLINO-BANCA)
27554,AVIGLIANA (V. DON BALBIANO-CIMITERO)
27557,RIVARA (BORG.CROSAROGLIO)
27560,LOCANA (FRAZ. ROSONE UFF. AEM)
27563,CERESOLE (BORG. VILLA)
27572,CISTERNA (BV. MOTTARONE)
27575,SAN DAMIANO (BV. VERNEGLIO)
27578,MAZZE' (CASCINA GABRIELLA)
27584,PIOBESI T.SE (V. GALIMBERTI/V. XXV APRILE)
27644,BOSCONERO (EATON LIVIA)
27683,PONT (CASE COPPI)
27686,FAIALLO (BIVIO)
27721,VEROLENGO (V. CASALE 30)
27738,CASTELL'ALFERO (CASE FLORA)
27741,TONCO (CAMPO SPORTIVO)
27744,CALLIANETTO (V. BERETTA)
27750,CANALE (CASE SACCHETTO)
27753,CANALE (COND. STEFANIA)
27765,SALASSA (V. ROSSA)
27786,CASTELROTTO (VILLA)
27789,CASTELLINALDO (BV. MAD. CAVALLI)
27792,MADONNA DEI CAVALLI (GIACONI)
27798,COLLERETTO (V. RIBES 1)
27825,OZZANO (V. LEOPARDI)
27828,FROSSASCO (V. PINEROLO 34)
27831,CANALE (V. ROMA 230)
27837,CHIVASSO (V. PERTINI)
27843,PALAZZO GROSSO (V. TORINO/V. LOTTI)
27874,TORINO (OSPEDALE KOELLIKER)
27877,SAN FRANCESCO AL CAMPO (V. S.CARLO 18)
27880,SAN FRANCESCO AL CAMPO (V. S.CARLO 50)
27892,SAN BENIGNO (LOC. BRUCIATA)
27904,MONTA' (CENTRO COMMERCIALE)
27910,PIOZZO (BIVIO)
27913,MONCHIERO (TETTI REA)
27915,CLAVESANA (BV. CARRU')
27916,DOGLIANI (V. TORINO-CATERPILLAR)
27919,DOGLIANI (SAN ROCCO)
27927,SOMMARIVA BOSCO (V. VITT. EMANUELE)
27942,LESSOLO (V. CAFFARO ALLERA)
27945,LESSOLO CAFFARO ALLERA (SCUOLE MEDIE)
27947,LESSOLO (V. IV NOVEMBRE/V. BREDDA)
27948,ALBIANO (C.SO M. D'AZEGLIO 12)
27949,ALBIANO (C.SO M. D'AZEGLIO 36)
27950,ALBIANO (CASCINA MOTTURONE)
27951,SETTIMO ROTTARO (V. XX SETTEMBRE/V. ROMA)
27952,SETTIMO ROTTARO (CASCINA TALA)
27955,STRAMBINO (V. CIRC.OVEST/V. MADONNA DEL ROSARIO)
27956,ROMANO (V. CIRC.OVEST/V. S.GRATO)
27958,AZEGLIO (FRAZ. POBBIA 41)
27959,PARELLA (S.P. 63/V. S.GIOVANNI)
27960,NOMAGLIO (S.P. PER ANDRATE)
27961,ANDRATE (P.ZA DEL PONTE)
27962,TORRAZZA (V. MAZZINI/STR. CASCINA ROSSA)
27963,MEUGLIANO (BV. PIANURE/BALMELLA)
27964,RUEGLIO (BV. TRAUSELLA)
27965,BOSCONERO (EX SS460 KM. 14950)
28011,VEROLENGO (SBARRO)
28017,RIVARA (BV. LEVONE)
28019,LEVONE (V. RIVARA)
28032,IVREA (Q. S.GIOVANNI-V. FRIULI)
28033,IVREA (Q. S.GIOVANNI-V. FRIULI)
28035,IVREA (Q. S.GIOVANNI-V. MOSETTO)
28039,TORINO (C.SO MARCHE-STAB.ABARTH)
28051,VOLVERA (V. MANZONI 10)
28052,ORBASSANO (BOMBARA)
28053,VOLVERA (PANEALBA)
28054,VOLVERA (ITI TRASPORTI)
28055,VOLVERA (STR. ORBASSANO/V. ZUCCHE)
28056,VOLVERA (STR. ORBASSANO 52)
28057,VOLVERA (STR. ORBASSANO 20)
28058,VOLVERA (STR. ORBASSANO 5)
28062,VOLVERA (STR. PIOSSASCO 12)
28063,VOLVERA (STR. ORBASSANO 118)
28064,VOLVERA (V.LE EUROPA UNITA)
28066,VOLVERA (V. GARIBALDI 3)
28067,VOLVERA (V. AIRASCA 35)
28068,VOLVERA (V. AIRASCA 65)
28070,CAMPO
28101,ROBELLA (SS 590 KM 38)
28104,VOLPIANO (V. BRANDIZZO/V. GENOVA)
28105,VOLPIANO (CC ELICOTTERISTI)
28116,VEROLENGO (P.ZA VITTORIA)
28122,CASABIANCA (SS.11)
28125,CASTELROSSO (MANEGGIO)
28130,CASTELROSSO (V. S.GIOVANNI)
28133,RONDISSONE (PONTE)
28134,RONDISSONE (V. XX SETTEMBRE)
28142,PIOSSASCO (V. VOLVERA/SCUOLA)
28144,GERMAGNANO (FUNGHERA)
28146,PESSINETTO (LOSA)
28148,PESSINETTO
28150,MEZZENILE
28152,TRAVES (ROZELLO)
28155,CERESOLE (BORG. MUA)
28228,FOSSANO (ROTONDA FONTANA)
28229,FOSSANO (APOLLO)
28231,FOSSANO (MAXISCONTO)
28232,FOSSANO (BOSCHETTI)
28233,FOSSANO (TAGLIATA)
28234,FOSSANO (TETTI CHIARAMELLI)
28235,CERVERE (BV. GRINZANO)
28236,CERVERE (SURRAUTO)
28237,CERVERE (V. MARCONI)
28238,CERVERE (TETTI BORI)
28239,CHERASCO (RORETO V. S. ROCCO)
28241,CHERASCO (RORETO V. MONTEGRAPPA)
28242,CHERASCO (RORETO POSTA)
28243,CHERASCO (RORETO ATLANTE)
28244,BRA (BERGOGLIO)
28245,BRA (V. CUNEO/V. ROSSELLI)
28246,BRA (V. CUNEO/BV. V. CHERASCO)
28247,BRA (GULLIVER)
28248,BRA (STR. ORTI /BV. MONTELUPA)
28249,BRA (PENAZZO)
28250,POCAPAGLIA (BV. FS)
28260,CINZANO (LE BETULLE)
28266,CINZANO (MUSCATEL)
28268,ST. VITTORIA D'ALBA (CARNEVALE)
28270,MONTICELLO (LA PREALPINA)
28280,ALBA (LOC. BIGLINI)
28290,ALBA (BV. SCAPARRONI)
30006,AVIGLIANA - STAZIONE FERROVIARIA - MOVICENTRO
30007,AVIGLIANA (CENTRO STUDI)
30041,BORGONE OFFICINA FIAT
30049,BRUZOLO - STAZIONE FERROVIARIA - BIVIO - INCROCIO SS 25 - SP 205
30050,BRUZOLO - VIA SUSA
30060,BUSSOLENO - V. TRAFORO
30061,BUSSOLENO - PIAZZA STAZIONE - VIA TRAFORO
30112,CHIANOCCO - BIVIO
30121,CHIUSA SAN MICHELE (VIA SUSA ANG. VIA CONDOVE)
30122,"CHIUSA SAN MICHELE - VIA TORINO,  4  - SS 25"
3018,SANTENA (MARTIRI LIBERTA')
30273,SANT'AMBROGIO DI TORINO - SAVELLERA
30280,BIVIO VAIE - INCROCIO SS 25 - SP 201
30283,VAIE - MAXISCONTO
30289,SANT'ANTONINO DI SUSA - FS
30291,SANT'ANTONINO DI SUSA - POSTA
30312,BIVIO SAN DIDERO - INCROCIO SS 25 - SP 204
30314,SAN GIORIO - VIA BALMA
30523,BRUSASCO
30826,PIANA SAN RAFFAELE
31033,RIVALBA (BIVIO)
31078,VINOVO (VIA ROMA 3 - 4)
31081,CARIGNANO (PIAZZA DONATORI DELL' AVIS)
31231,RONDISSONE (P.ZA ROMA)
31411,BANCHETTE (SCUOLE)
3161,CAMBIANO (LISA)
32293,BOSCONERO (SS460/BV. BOSCONERO)
32362,VALPERGA (STAZIONE)
32437,BALDISSERO (BETTOLINO)
32482,FAVRIA (CENTRO)
32524,VOLPIANO (STAZIONE)
32767,CASTIGLIONE (BIVIO)
33171,BRUSASCO (P.ZA RITANA) CAP
33732,CUMIANA (BIVIO)
33772,FROSSASCO (BIVIO)
34251,RIVARA (P.ZA BARBACANIA)
34477,VIU' (FUCINE-INTERSCAMBIO)
34648,MURISENGO
34855,FRINCO (BV. MOLINASSO)
3595,RIVOLI (OSPEDALE RIVOLI)
3602,TORINO (CHIESA SALUTE)
40006,AVIGLIANA - STAZIONE FERROVIARIA - MOVICENTRO
40041,BORGONE OFFICINA FIAT
40049,BRUZOLO - STAZIONE FERROVIARIA - BIVIO - INCROCIO SS 25 - SP 205
40060,BUSSOLENO - OTTICA
40061,BUSSOLENO - PIAZZA STAZIONE - VIA TRAFORO
40112,CHIANOCCO - BIVIO
40121,CHI - SS 25 48
40122,CHIUSA SAN MICHELE
40144,VILLARFOCCHIARDO - CHIESALI
40273,SANT'AMBROGIO DI TORINO - SAVELLERA
40280,BIVIO VAIE - INCROCIO SS 25 - SP 201
40283,VAIE - MAXISCONTO
40289,SANT'ANTONINO DI SUSA - FS
40291,SANT'ANTONINO DI SUSA - POSTA
40312,BIVIO SAN DIDERO - INCROCIO SS 25 - SP 204
40314,SAN GIORIO - VIA BALMA
40712,ORBASSANO (REGIONE BRONZINA)
41013,CALUSO (FRAZ. VALLO - CHIESA)
41033,RIVALBA (BIVIO)
41055,VINOVO (VILLAGGIO DEGA / V. STUPINIGI)
41075,VINOVO (VIA MAZZOLARI FR. 5)
41231,RONDISSONE (P.ZA ROMA)
4124,RIVALTA (MONGINEVRO CAP)
4125,RIVALTA (CHIOMONTE N.27)
4126,RIVALTA (MONGINEVRO N.6)
4127,RIVALTA (BOCCACCIO)
4128,RIVALTA (MONTE ORTIGARA)
4129,RIVALTA (MARONCELLI)
4130,RIVALTA (FRATELLI CERVI)
42362,VALPERGA (STAZIONE)
42437,BALDISSERO (BETTOLINO)
42482,FAVRIA (CENTRO)
42767,CASTIGLIONE (BIVIO)
43732,CUMIANA (BIVIO)
43772,FROSSASCO (BIVIO)
44251,RIVARA (P.ZA BARBACANIA)
44855,FRINCO (BV. MOLINASSO)
49,TORINO (CARDUCCI CAP)
5122,RIVALTA (S.FRANCESCO)
54372,VINOVO (PIAZZA REY 25)
54376,CARIGNANO (CORSO BATTISTI)
54648,FOSSANO (ITIS)
55227,VERRUA SAVOIA (SCUOLE)
55424,BUSSOLENO - MERCATO
55425,BUSSOLENO - MERCATO
55426,SAN GIORIO - PILONE ANG SS.25
55427,SAN GIORIO - PILONE ANG SS.25
55429,"SAN GIORIO DI SUSA, BORGATA BALMA"
55430,SAN GIORIO - BALMETTA
55431,"SAN GIORIO DI SUSA, BORGATA BALMA"
55432,SAN GIORIO - BALMETTA
55433,SAN GIORIO (P.ZZA VELINO - CAP)
55434,SAN GIORIO (P.ZZA VELINO)
55435,BORGONE SUSA - SAN PAOLO
55436,BORGONE SUSA - SAN PAOLO
55437,SAN GIORIO - FRAZ. MARTINETTI
55438,POGNANT
55439,SAN GIORIO - FRAZ. MARTINETTI 1
55440,SAN GIORIO - FRAZ. MARTINETTI
55441,SAN GIORIO - FRAZ. MARTINETTI 1
55442,BIVIO SANT'ANTONINO - INCROCIO SS 25 - SP 201
55443,BIVIO SANT'ANTONINO - INCROCIO SS 25 - SP 201
55445,SANT'AMBROGIO DI TORINO - STAZIONE
55446,SANT'AMBROGIO DI TORINO - STAZIONE
55447,FERRIERA (TEKFOR)
55448,AVIGLIANA (STAZIONE)
55449,GRUGLIASCO - VIA FRATELLI BANDIERA - ISTITUTO ARTI E MESTIERI
55451,CARIGNANO (V.S.REMIGIO CAP)
55463,CARIGNANO - CENTRALE ELETTRICA
55464,CARIGNANO - CENTRALE ELETTRICA
55472,BUSSOLENO - VIA TONELLI - SCUOLE
55773,SAN MAURO (FIAT KOBELCO)
55776,GRUGLIASCO - C.A.A.T.
55780,ORBASSANO (INTERPORTO SITO NORD)
55781,ORBASSANO (INTERPORTO SITO NORD)
55786,ORBASSANO (SITO INTERPORTO)
55794,RIVALTA (ORBASSANO SITO - STRADA TERZA)
55856,VINOVO (VIA SAN DESIDERIO)
56451,GUARENE (VACCHERIA)
63010,BRUZOLO - PIAZZA II GIUGNO - PALESTRA
63011,CHIANOCCO - CROTTE
63012,CHIANOCCO - CROTTE
63013,SAN GIORIO DI SUSA - VIA FONTAN - MICELLONE CAP
63014,MALPASSO
63015,BRUZOLO - VIA DEI MILLE ANGOLO VIA MAFFIODENZA
8162,TORINO (ROCCAVIONE)
8163,TORINO (CASTELDELFINO)
8164,TORINO (ROCCAVIONE)
829,COLLEGNO (FERMI CAP)
93,TORINO (STRADELLA)
PORTANUOVA,STAZIONE PORTA NUOVA
PORTASUSA,STAZIONE PORTA SUSA
